chapter_id,chapter_name,zone,region,chapter_type,account_type,city,state,country,email,phone,lat,lon,snapshot_date
a0M6g00000BqQzR,Saginaw Valley State University,Primary Zone,Region 4,,Chapter,University Center,Michigan,United States,fjmugasa@svsu.edu,989  4842653,43.51838723398918,-84.57888009217356,2026-06-19
a0M6g00000BqQzU,Penn State University,,,,Chapter,University Park,Pennsylvania,United States,hle2@psu.edu,814  8631080,40.84177054393797,-77.07159737965844,2026-06-19
a0M6g00000BqQzV,UCLA School of Engineering,,,,Company,Los Angeles,California,United States,carol@ea.ucla.edu,310  2066493,35.832127143521355,-119.34862835385427,2026-06-19
a0M6g00000BqQzW,University of Wisoconsin-Platteville,Primary Zone,Region 4,,Chapter,Platteville,Wisconsin,United States,adamskar@uwplatt.edu,800  3625460,44.45134079139325,-89.41626298630612,2026-06-19
a0M6g00000BqQzY,U.S. Coast Guard Academy Admissions,New England Zone,Region 1,,Chapter,New London,Connecticut,United States,timothy.g.frazier@uscga.edu,860  2341480,41.33746154287289,-72.7901008434731,2026-06-19
a0M6g00000BqQzZ,Suny Buffalo Step-Pci,Upstate Zone,Region 1,,Chapter,Buffalo,New York,United States,ubstep@gmail.com,716  829-2004,42.075284616962804,-74.64931550780598,2026-06-19
a0M6g00000BqQza,Not The College Of New Jersey Collegiate Chapter,Primary Zone,Region 1,,Chapter,Ewing,New Jersey,United States,notapplicable@gmail.com,000  0000000,40.39960958405646,-74.29507787071041,2026-06-19
a0M6g00000BqQzb,New Mexico Tech,,Region 6,,Chapter,Socorro,New Mexico,United States,nsbe@nmt.edu,575  835-5513,34.800904939179134,-106.43941489475066,2026-06-19
a0M6g00000BqQzc,Georgia Tech Research Institute,Primary Zone,Region 3,,Chapter,Atlanta,Georgia,United States,heather.gardenhire@gtri.gatech.edu,(770) 402-6833,33.07882835091108,-83.94840192072708,2026-06-19
a0M6g00000BqQzd,Fisk University,Primary Zone,Region 3,,Chapter,Nashville,Tennessee,United States,shussain@fisk.edu,202  830-7072,35.977186820394806,-86.60017992061455,2026-06-19
a0M6g00000BqQzh,Brown University,New England Zone,Region 1,,Chapter,PROVIDENCE,Rhode Island,United States,president.brown.nsbe@gmail.com,000  000000,41.86155441805976,-71.6136118223091,2026-06-19
a0M6g00000BqQzm,Manhattan College,Metro/LI Zone,Region 1,,Chapter,RIVERDALE,New York,United States,nsbe@manhattan.edu,000  000000,42.495214617076435,-74.67286621507446,2026-06-19
a0M6g00000BqQzt,State University Of New York-Buffalo,Upstate Zone,Region 1,,Chapter,BUFFALO,New York,United States,ub.nsbe.buffalo@gmail.com,(716)-645-2950,42.360594447951634,-75.16180390450363,2026-06-19
a0M6g00000BqQzv,Stony Brook University,Upstate Zone,Region 1,,Chapter,Stony Brook,New York,United States,sbu.nsbe@gmail.com,646  6713558,42.14243070260893,-75.26738836394895,2026-06-19
a0M6g00000BqR02,New York Institute Of Technology- Manhattan,Metro/LI Zone,Region 1,,Chapter,New York,New York,United States,nsbema@nyit.edu,000  000000,41.92372864444728,-74.81991673273029,2026-06-19
a0M6g00000BqR03,New York Institute Of Technology-Old Westbury,Metro/LI Zone,Region 1,,Chapter,OLD WESTBURY,New York,United States,nsbeow@nyit.edu,(516) 686-7721,42.33705950913547,-74.62079418729606,2026-06-19
a0M6g00000BqR06,Cooper Union,Metro/LI Zone,Region 1,,Chapter,New York,New York,United States,nsbe@cooper.edu,(212) 353-4100,42.0438037506967,-75.0387292057756,2026-06-19
a0M6g00000BqR07,New York Institute Of Technology-Central Islip,Metro/LI Zone,Region 1,,Chapter,CENTRAL ISLIP,New York,United States,,000  000000,42.144415067893064,-75.16542104864101,2026-06-19
a0M6g00000BqR08,NSBE Greenbelt Space Chapter,Terror Zone,Region 2,,Chapter,Glenn Dale,Maryland,United States,leslie.garrison@nasa.gov,301  2866940,38.804891053734835,-76.81910755164184,2026-06-19
a0M6g00000BqR0A,City University Of New York-Queens,Metro/LI Zone,Region 1,,Chapter,FLUSHING,New York,United States,,000  000000,41.97456254433562,-74.82918120372224,2026-06-19
a0M6g00000BqR0E,State University Of New York- New Paltz,Metro/LI Zone,Region 1,,Chapter,New Paltz,New York,United States,nsbe.newpaltz@gmail.com,(347) 664-4786,42.12173234321063,-74.71517626275951,2026-06-19
a0M6g00000BqR0F,NSBE Trinity College,New England Zone,Region 1,,Chapter,Hartford,Connecticut,United States,harry.blaise@trincoll.edu,000  000000,41.737967571401576,-72.88671435103257,2026-06-19
a0M6g00000BqR0I,Yale University,New England Zone,Region 1,,Chapter,New Haven,Connecticut,United States,michael.loewenberg@yale.edu,(203) 668-1023,41.83036386097664,-72.54203594975223,2026-06-19
a0M6g00000BqR0J,State University Of New York- Maritime,Metro/LI Zone,Region 1,,Chapter,The Bronx,New York,United States,,000  000000,42.086960865321124,-75.09622132724884,2026-06-19
a0M6g00000BqR0K,St. John'S University,Primary Zone,Region 1,,Chapter,Jamaica,New York,United States,sju.nsbe@gmail.com,000  000000,42.29347285278248,-75.2002242614735,2026-06-19
a0M6g00000BqR0L,University Of New Haven,New England Zone,Region 1,,Chapter,West Haven,Connecticut,United States,nsbe-newhaven@newhaven.edu,000  000000,41.38771774173258,-73.1002174111743,2026-06-19
a0M6g00000BqR0M,Johnson & Wales University,New England Zone,Region 1,,Chapter,PROVIDENCE,Rhode Island,United States,,000  000000,41.881740064251495,-71.39638440038559,2026-06-19
a0M6g00000BqR0N,U.S. Military Academy-West Point,Metro/LI Zone,Region 1,,Chapter,WEST POINT,New York,United States,stephane.manuel@usma.edu,000  000000,42.30934176503843,-74.75154067828463,2026-06-19
a0M6g00000BqR0O,Wellesley College,New England Zone,Region 1,,Chapter,WELLESLEY,Massachusetts,United States,nsbemail@wellesley.edu,000  000000,42.20141204287684,-71.48198716283298,2026-06-19
a0M6g00000BqR0P,Polytechnic Univ-Long Island,Metro/LI Zone,Region 1,,Chapter,FARMINGDALE,New York,United States,,000  000000,41.91358389868936,-75.21787994852482,2026-06-19
a0M6g00000BqR0Q,Boston College,New England Zone,Region 1,,Chapter,CHESTNUT HILL,Massachusetts,United States,,000  000000,42.348053073253325,-71.5503386556998,2026-06-19
a0M6g00000BqR0R,Buffalo State University,Upstate Zone,Region 1,,Chapter,BUFFALO,New York,United States,bsc.nsbe@gmail.com,000  000000,42.21139127453683,-74.76255179980879,2026-06-19
a0M6g00000BqR0S,Fairleigh Dickinson University,New Jersey Zone,Region 1,,Chapter,TEANECK,New Jersey,United States,taty_21@student.fdu.edu,000  000000,40.393206824000416,-74.4835054195394,2026-06-19
a0M6g00000BqR0T,Devry University-New York At Long Island City,Metro/LI Zone,Region 1,,Chapter,LONG ISLAND CITY,New York,United States,,000  000000,42.20717101252179,-75.08528593135618,2026-06-19
a0M6g00000BqR0U,Drew University,New Jersey Zone,Region 1,,Chapter,JERSEY CITY,New Jersey,United States,,000  000000,39.970476484197555,-74.56530882753735,2026-06-19
a0M6g00000BqR0V,Devry University-North Brunswick,New Jersey Zone,Region 1,,Chapter,NORTH BRUNSWICK,New Jersey,United States,,000  000000,40.09911327097367,-74.58504094939276,2026-06-19
a0M6g00000BqR0W,Middlesex County College,New Jersey Zone,Region 1,,Chapter,Edison,New Jersey,United States,mcc_nsbe@yahoo.com,000  000000,40.54628615128772,-74.70725335989427,2026-06-19
a0M6g00000BqR0X,Pace Unversity,Metro/LI Zone,Region 1,,Chapter,New York,New York,United States,nsbe@pace.edu,000  000000,41.856537919182344,-75.1010822755846,2026-06-19
a0M6g00000BqR0Z,Smith College,New England Zone,Region 1,,Chapter,Northampton,Massachusetts,United States,nsbe@smith.edu,000  000000,42.085686630436676,-71.41676443969118,2026-06-19
a0M6g00000BqR0b,Gannon University/Deltak,Primary Zone,Region 3,,Chapter,Maitland,Florida,United States,jessica.montville@deltak-innovation.com,000  000000,27.806201506638896,-81.48805425362552,2026-06-19
a0M6g00000BqR0z,South Carolina State University,Comfort Zone,Region 2,,Chapter,ORANGEBURG,South Carolina,United States,scsuprezz@gmail.com,000  000000,33.971911478229174,-81.01053619699195,2026-06-19
a0M6g00000BqR11,Capitol College,Terror Zone,Region 2,,Chapter,LAUREL,Maryland,United States,ccnsbe@yahoo.com,000  000000,39.283760269266224,-77.0352199560646,2026-06-19
a0M6g00000BqR13,Pennsylvania State University - Behrend,End Zone,Region 2,,Chapter,ERIE,Pennsylvania,United States,psb_nsbe@yahoo.com,(814) (898) 6000,40.25665045119371,-77.49672149745705,2026-06-19
a0M6g00000BqR14,St. Augustines University,Comfort Zone,Region 2,,Chapter,RALEIGH,North Carolina,United States,awurie@st-aug.edu,000  000000,35.78571754541751,-79.83310493882404,2026-06-19
a0M6g00000BqR16,Western New England University,New England Zone,Region 1,,Chapter,Springfield,Massachusetts,United States,,000  000000,41.99306124532352,-71.52937465742765,2026-06-19
a0M6g00000BqR17,Colgate University,Primary Zone,Region 1,,Chapter,Hamilton,New York,United States,,000  000000,41.922344471899216,-74.81062673744559,2026-06-19
a0M6g00000BqR18,Morrisville State College,Primary Zone,Region 1,,Chapter,Morrisville,New York,United States,,000  000000,42.12803539290182,-75.03133614173247,2026-06-19
a0M6g00000BqR19,Suny Institute Of Technology,Primary Zone,Region 1,,Chapter,Utica,New York,United States,,000  000000,42.02678446240351,-74.85685318481679,2026-06-19
a0M6g00000BqR1B,New Society Of Black Engineers,Terror Zone,Region 2,,Chapter,Largo,Maryland,United States,,000  000000,38.96721482738737,-77.09074605647872,2026-06-19
a0M6g00000BqR1C,University of Bridgeport Chapter,New England Zone,Region 1,,Chapter,Bridgeport,Connecticut,United States,ubnsbe@gmail.com,000  000000,41.33038613148436,-72.43204263481533,2026-06-19
a0M6g00000BqR1D,University Of Portharcourt (Uniport),International Zone,Region 1,,Chapter,"Portharcourt, Rivers state",,Nigeria,nsbe_uniport@yahoo.com,000  000000,9.368006483495325,8.815094993667525,2026-06-19
a0M6g00000BqR1H,Virginia Union University,O Zone,Region 2,,Chapter,RICHMOND,Virginia,United States,vuu.nsbe@hotmail.com,804  2575671,37.605445973021666,-77.84154453585658,2026-06-19
a0M6g00000BqR1M,Bowie State University,Terror Zone,Region 2,,Chapter,BOWIE,Maryland,United States,bowiensbe@gmail.com,661  3481638,39.259071632776056,-76.6502778675887,2026-06-19
a0M6g00000BqR1O,University Of Maryland-Eastern Shore,Terror Zone,Region 2,,Chapter,PRINCESS ANNE,Maryland,United States,,000  000000,39.02849905150065,-76.96153190670839,2026-06-19
a0M6g00000BqR1V,Community College Of Philadelphia,Danger Zone,Region 2,,Chapter,Philadelphia,Pennsylvania,United States,,000  000000,40.30822567350745,-76.9279333224193,2026-06-19
a0M6g00000BqR1W,Wake Forest University,Comfort Zone,Region 2,,Chapter,Winston-Salem,North Carolina,United States,becknr22@wfu.edu,240-498-1512,35.59910940288353,-80.01476464464335,2026-06-19
a0M6g00000BqR1Z,Bennett College,Comfort Zone,Region 2,,Chapter,Greensboro,North Carolina,United States,bennett_nsbe@yahoo.com,000  000000,35.49423563690546,-79.75096530174068,2026-06-19
a0M6g00000BqR1a,Itt Technical Institute - Springfield Va,Terror Zone,Region 2,,Chapter,Springfield,Virginia,United States,durrellgray@hotmail.com,000  000000,37.543077948057466,-77.92033800113533,2026-06-19
a0M6g00000BqR1b,Frostburg State University,Terror Zone,Region 2,,Chapter,Frostburg,Maryland,United States,,000  000000,39.244909670884645,-76.64847693083433,2026-06-19
a0M6g00000BqR1c,Central Piedmont Community College,Comfort Zone,Region 2,,Chapter,Charlotte,North Carolina,United States,president@nsbecharlotte.org,000  000000,35.58253112784257,-79.71730281150829,2026-06-19
a0M6g00000BqR1d,East Carolina University,Comfort Zone,Region 2,,Chapter,Greenville,North Carolina,United States,hayesd07@students.ecu.edu,000  000000,35.688934578238914,-79.70152637891164,2026-06-19
a0M6g00000BqR1i,Auburn University NSBE Chapter,Primary Zone,Region 3,,Chapter,Auburn University,Alabama,United States,csw0072@auburn.edu,(334) 844-6319,32.51578202479792,-86.85006481848058,2026-06-19
a0M6g00000BqR1m,Jackson State University,,Region 3,,Non-Member,Jackson,Mississippi,United States,jacksonstatensbe3@gmail.com,(601) 979-2121,32.420775921703324,-89.68290242652884,2026-06-19
a0M6g00000BqR1p,Tennessee State University,Primary Zone,Region 3,,Chapter,Nashville,Tennessee,United States,tennstatensbe@gmail.com,334  7440547,35.62874784863295,-86.94117806779377,2026-06-19
a0M6g00000BqR1q,Tennessee Tech University,Primary Zone,Region 3,,Chapter,Cookeville,Tennessee,United States,hingle@tntech.edu,931  372-3540,35.47022707740578,-86.6309937994756,2026-06-19
a0M6g00000BqR1s,University Of Alabama-Birmingham,Primary Zone,Region 3,,Chapter,Birmingham,Alabama,United States,nsbeatuab@gmail.com,205-934-8450,32.57608607797582,-86.49354591713623,2026-06-19
a0M6g00000BqR1t,University Of Alabama-Huntsville,Primary Zone,Region 3,,Chapter,HUNTSVILLE,Alabama,United States,nsbe@email.uah.edu,000  000000,32.86341379779028,-86.89832113682561,2026-06-19
a0M6g00000BqR23,Vanderbilt University,Primary Zone,Region 3,,Chapter,NASHVILLE,Tennessee,United States,vuse.nsbe@gmail.com,000  000000,35.81148584403699,-87.02638229027922,2026-06-19
a0M6g00000BqR24,Catholic University Nsbe Chapter,Terror Zone,Region 2,,Chapter,Washington,District of Columbia,United States,president.nsbe.cua@gmail.com,(202)-640-3666,39.21842944926901,-77.03920459413996,2026-06-19
a0M6g00000BqR25,Loyola College,Terror Zone,Region 2,,Chapter,Baltimore,Maryland,United States,nsbeloyola@gmail.com,000  000000,39.261860659075204,-77.09419000005428,2026-06-19
a0M6g00000BqR26,Christian Brothers University,Primary Zone,Region 3,,Chapter,MEMPHIS,Tennessee,United States,nearle@cbu.edu,000  000000,35.73850583158671,-86.69885010395184,2026-06-19
a0M6g00000BqR2B,Albany State University,Primary Zone,Region 3,,Chapter,ALBANY,Georgia,United States,ksowu@students.asurams.edu,000  000000,33.347097518482485,-83.59286436333674,2026-06-19
a0M6g00000BqR2D,Devry University-Atlanta,Primary Zone,Region 3,,Chapter,DECATUR,Georgia,United States,nsbedevryatlanta@yahoo.com,000  000000,33.022061580739866,-83.80619103583567,2026-06-19
a0M6g00000BqR2G,Oakwood University,Primary Zone,Region 3,,Chapter,Hunstville,Alabama,United States,ounsbe.president@gmail.com,000  000000,32.68876929813979,-86.77665931826992,2026-06-19
a0M6g00000BqR2H,Kentucky State University- Alpha Omega,Primary Zone,Region 3,,Chapter,FRANKFORT,Kentucky,United States,nsbeky@gmail.com,773  9208395,37.62537802221353,-85.00493854408377,2026-06-19
a0M6g00000BqR2I,University Of North Florida,Primary Zone,Region 3,,Chapter,JACKSONVILLE,Florida,United States,unf.nsbe@gmail.com,000  000000,27.99468334693605,-81.40947045971217,2026-06-19
a0M6g00000BqR2L,Fort Valley State University,Primary Zone,Region 3,,Chapter,FORT VALLEY,Georgia,United States,fvsbe3@gmail.com,000  000000,32.788793362299025,-83.60524869952266,2026-06-19
a0M6g00000BqR2M,Valdosta State University,Primary Zone,Region 3,,Chapter,VALDOSTA,Georgia,United States,,000  000000,32.76662201879481,-83.52250593487213,2026-06-19
a0M6g00000BqR2O,Clark Atlanta University,Primary Zone,Region 3,,Chapter,ATLANTA,Georgia,United States,caunsbe@yahoo.com,000  000000,32.8874826486873,-83.53147815571566,2026-06-19
a0M6g00000BqR2Q,University Of Tennessee-Martin,Primary Zone,Region 3,,Chapter,MARTIN,Tennessee,United States,latlbrow@utm.edu,000  000000,35.90674123000082,-86.50429175565765,2026-06-19
a0M6g00000BqR2S,Devry University- Orlando,Primary Zone,Region 3,,Chapter,Orlando,Florida,United States,danica.miller@hotmail.com,000  000000,27.491697662169127,-81.39557470840369,2026-06-19
a0M6g00000BqR2T,Georgia State University,Primary Zone,Region 3,,Chapter,Atlanta,Georgia,United States,,000  000000,32.85176879362642,-83.96688521067668,2026-06-19
a0M6g00000BqR2U,Georgia Perimeter College- GPC,Primary Zone,Region 3,,Chapter,Decatur,Georgia,United States,,000  000000,33.079015728574035,-83.7334284012963,2026-06-19
a0M6g00000BqR2V,Darton College,Primary Zone,Region 3,,Chapter,Albany,Georgia,United States,nikki.grantham@darton.edu,000  000000,33.27147182019269,-83.42729796955499,2026-06-19
a0M6g00000BqR2W,Atlanta Metropolitan College,Primary Zone,Region 3,,Chapter,Atlanta,Georgia,United States,ajbrookins@gmail.com,000  000000,32.9126162249759,-83.32604442345118,2026-06-19
a0M6g00000BqR2X,University Of West Florida,Primary Zone,Region 3,,Chapter,Pensacola,Florida,United States,bam23@students.uwf.edu,000  000000,27.619921486698082,-81.6762430095378,2026-06-19
a0M6g00000BqR2Y,Kettering University A-Section,Primary Zone,Region 4,,Chapter,Flint,Michigan,United States,nsbe.kua.pres@gmail.com,(248) 495-7657,43.155793563397324,-84.23086450096572,2026-06-19
a0M6g00000BqR2b,Lawrence Tech University,Primary Zone,Region 4,,Chapter,SOUTHFIELD,Michigan,United States,nsbeltu@yahoo.com,000  000000,43.09184347230742,-84.85465756642537,2026-06-19
a0M6g00000BqR2m,University Of Detroit Mercy,Primary Zone,Region 4,,Chapter,DETROIT,Michigan,United States,akinnihe@students.udmercy.edu,000  000000,43.28118594200213,-84.19143210516091,2026-06-19
a0M6g00000BqR2n,University Of Evansville,Primary Zone,Region 4,,Chapter,EVANSVILLE,Indiana,United States,hh84@evansville.edu,000  000000,40.12360008637844,-86.08425238638014,2026-06-19
a0M6g00000BqR2w,Wright State University,Primary Zone,Region 4,,Chapter,Dayton,Ohio,United States,cecs-dean@wright.edu,(937) 775-5001,40.66233774361496,-82.4895023522115,2026-06-19
a0M6g00000BqR31,Marquette University,Primary Zone,Region 4,,Chapter,MILWAUKEE,Wisconsin,United States,alex.morrison@marquette.edu,000  000000,44.281743852270516,-89.74535766371844,2026-06-19
a0M6g00000BqR32,Saginaw Valley State,Primary Zone,Region 4,,Chapter,Saginaw,Michigan,United States,mmugasa@svsu.edu,000  000000,43.51702670247769,-84.42293211578257,2026-06-19
a0M6g00000BqR34,Chicago State University,Primary Zone,Region 4,,Chapter,CHICAGO,Illinois,United States,nsbecsu@yahoo.com,000  000000,40.2610174102116,-89.27001033235693,2026-06-19
a0M6g00000BqR38,Itt Technical Institute,Primary Zone,Region 4,,Chapter,TROY,Michigan,United States,,000  000000,43.499370727944324,-84.702372638854,2026-06-19
a0M6g00000BqR3B,Devry University-Chicago,Primary Zone,Region 4,,Chapter,CHICAGO,Illinois,United States,,000  000000,40.655226205373644,-89.16745759749602,2026-06-19
a0M6g00000BqR3C,Wabash College,Primary Zone,Region 4,,Chapter,CRAWFORDSVILLE,Indiana,United States,,000  000000,39.58535655268804,-86.02649912951257,2026-06-19
a0M6g00000BqR3D,Illinois Wesleyan University,Primary Zone,Region 4,,Chapter,BLOOMINGTON,Illinois,United States,,000  000000,40.106756021637146,-89.21064918428958,2026-06-19
a0M6g00000BqR3E,Ferris State University,Primary Zone,Region 4,,Chapter,BIG RAPIDS,Michigan,United States,,000  000000,43.39618595406459,-84.27390157141377,2026-06-19
a0M6g00000BqR3G,Center For Advanced Technologies,Primary Zone,Region 4,,Chapter,DETROIT,Michigan,United States,1455@catnsbe.org,000  000000,43.1141222660002,-84.66886842896994,2026-06-19
a0M6g00000BqR3H,Depaul University,Primary Zone,Region 4,,Chapter,CHICAGO,Illinois,United States,nsbe@cti.depaul.edu,000  000000,40.54364038676883,-88.65585850175732,2026-06-19
a0M6g00000BqR3J,Daley College,Primary Zone,Region 4,,Chapter,CHICAGO,Illinois,United States,nsbe_at_daley@hotmail.com,000  000000,40.34997583034164,-89.23540874821413,2026-06-19
a0M6g00000BqR3O,Hope College,Primary Zone,Region 4,,Chapter,Holland,Michigan,United States,nsbe@hope.edu,000  000000,42.986373401395745,-84.7253357790008,2026-06-19
a0M6g00000BqR3P,Southern Indiana J.B.T. Henderson Chapter,Primary Zone,Region 4,,Chapter,Evansville,Indiana,United States,,000  000000,39.591701552450566,-86.13391692847101,2026-06-19
a0M6g00000BqR3Q,University Of Minnesota Duluth,Primary Zone,Region 4,,Chapter,Duluth,Minnesota,United States,umdnsbe@d.umn.edu,218-726-8444,45.42973675323997,-93.89576104786556,2026-06-19
a0M6g00000BqR3R,Cincinnati State Technical And Community College,Primary Zone,Region 4,,Chapter,Cincinnati,Ohio,United States,dtbrown27658@cincinnatistate.edu,000  000000,40.52476670495002,-82.70813337354537,2026-06-19
a0M6g00000BqR3S,ANDREWS UNIVERSITY,Primary Zone,Region 4,,Chapter,Berrien Springs,Michigan,United States,joseph.influence@gmail.com,000  000000,43.116460956162044,-84.32320783167242,2026-06-19
a0M6g00000BqR3a,Southern Methodist University NSBE,Big Tex Zone,Region 5,,Chapter,Dallas,Texas,United States,smunsbe@gmail.com,(1) (832) 412-5064,31.205271990731063,-97.39617219725912,2026-06-19
a0M6g00000BqR3c,Tulane University NSBE Chapter,Cajun Zone,Region 5,,Chapter,New Orleans,Louisiana,United States,tulanensbepresident@gmail.com,(832) 759-0205,30.91128642609012,-92.13117733744477,2026-06-19
a0M6g00000BqR3e,University of Arkansas at Pine Bluff,OK Zone,Region 5,,Chapter,Pine Bluff,Arkansas,United States,uapbnsbe@gmail.com,(+1) (870) 6924869,35.268997785704556,-92.44481826432255,2026-06-19
a0M6g00000BqR3q,Dillard University,Cajun Zone,Region 5,,Chapter,NEW ORLEANS,Louisiana,United States,nsbe@dillard.edu,000  000000,31.030210084246658,-91.87579616825393,2026-06-19
a0M6g00000BqR3s,Rose State College Nsbe,OK Zone,Region 5,,Chapter,Midwest City,Oklahoma,United States,dijoun-newman@stu.rose.edu,000  000000,35.67934694893451,-96.60998072006711,2026-06-19
a0M6g00000BqR3w,"Devry University-Irving, Tx.",Big Tex Zone,Region 5,,Chapter,Irving,Texas,United States,nsbe_devryirving@yahoo.com,000  000000,30.90499935881744,-97.26609509948159,2026-06-19
a0M6g00000BqR3x,University Of Houston-Downtown,Big Tex Zone,Region 5,,Chapter,HOUSTON,Texas,United States,nsbe_uhd@yahoo.com,000  000000,30.72188864397038,-97.52482237037123,2026-06-19
a0M6g00000BqR3z,Arkansas State,OK Zone,Region 5,,Chapter,State University,Arkansas,United States,prhodes@astate.edu,000  000000,35.06348657817676,-92.64899481737449,2026-06-19
a0M6g00000BqR40,Texas A&M University-Kingsville,Big Tex Zone,Region 5,,Chapter,Kingsville,Texas,United States,tomiwaolanrewaju1@gmail.com,(832) 251-6817,30.80272471794474,-97.62008097647859,2026-06-19
a0M6g00000BqR45,Henderston State University,OK Zone,Region 5,,Chapter,ARKADELPHIA,Arkansas,United States,,000  000000,35.296066338500225,-92.30589321273595,2026-06-19
a0M6g00000BqR46,Langston University,OK Zone,Region 5,,Chapter,LANGSTON,Oklahoma,United States,,000  000000,35.868458255120146,-96.71586435907092,2026-06-19
a0M6g00000BqR47,Northeastern State University,OK Zone,Region 5,,Chapter,TAHLEQUAH,Oklahoma,United States,,000  000000,35.542509121088706,-96.72958258552347,2026-06-19
a0M6g00000BqR49,University of Missouri - St. Louis,MO Zone,Region 5,,Chapter,ST. LOUIS,Missouri,United States,nsbeatumsl@gmail.com,3144411114,38.118570748783895,-92.56196720226399,2026-06-19
a0M6g00000BqR4B,Huston-Tillotson University Chapter,Big Tex Zone,Region 5,,Chapter,AUSTIN,Texas,United States,nsbewit@htu.edu,5125056410,31.285087030417916,-97.35568903817239,2026-06-19
a0M6g00000BqR4E,Concordia College,Primary Zone,Region 4,,Chapter,Moorhead,Minnesota,United States,,000  000000,45.5073025193765,-93.87865328658067,2026-06-19
a0M6g00000BqR4F,Arkansas Tech University,OK Zone,Region 5,,Chapter,Russellville,Arkansas,United States,,000  000000,35.04391507449001,-92.1157057323568,2026-06-19
a0M6g00000BqR4I,Southern Council Of Black Engineers & Scientists,Cajun Zone,Region 5,,Chapter,Shreveport,Louisiana,United States,josepherbrown@yahoo.com,000  000000,31.24172101013711,-91.92900490150843,2026-06-19
a0M6g00000BqR4J,250709,At-Large,Region 5,,Chapter,Alexandria,Virginia,United States,,000  000000,37.68126583038503,-78.22185053953854,2026-06-19
a0M6g00000BqR4M,California State University - Fresno,Northern California Zone,Region 6,,Chapter,FRESNO,California,United States,csuredfred@mail.fresnostate.edu,000  000000,36.22255471790598,-119.42432055777337,2026-06-19
a0M6g00000BqR4V,San Jose State University Black Alliance of Scientists & Engineers,Northern California Zone,Region 6,,Chapter,SAN JOSE,California,United States,base-engineering@sjsu.edu,415-497-6250,36.08393081745341,-119.85807630593405,2026-06-19
a0M6g00000BqR4Y,Black Excellence In Engineering Science And Techno,Northern California Zone,Region 6,,Chapter,Bakersfield,California,United States,,000  000000,35.93186665409831,-119.50935400382959,2026-06-19
a0M6g00000BqR4a,Westminster College Chapter,MO Zone,Region 5,,Chapter,Fulton,Missouri,United States,,000  000000,38.67768313439674,-92.56467334410212,2026-06-19
a0M6g00000BqR4b,University Of Nevada Las Vegas,Southwest Zone,Region 6,,Chapter,LAS VEGAS,Nevada,United States,unlvnsbe.president@gmail.com,000  000000,38.01010619986863,-116.98927043537049,2026-06-19
a0M6g00000BqR4c,University Of The Pacific,Northern California Zone,Region 6,,Chapter,STOCKTON,California,United States,,000  000000,35.868524270934884,-119.45429906668056,2026-06-19
a0M6g00000BqR4d,California Institute of Technology,Southern California Zone,Region 6,,Chapter,PASADENA,California,United States,mlthomas@caltech.edu,626  395-8103,35.98343727174685,-119.9308536469202,2026-06-19
a0M6g00000BqR4e,"University of California, Riverside",Southern California Zone,Region 6,,Chapter,Riverside,California,United States,habdu016@ucr.edu,3104379230,36.41088233074122,-119.9156917940853,2026-06-19
a0M6g00000BqR4f,Seattle University,Northwest Zone,Region 6,,Chapter,SEATTLE,Washington,United States,aragawia@seattleu.edu,000  000000,47.250206057636554,-121.73296462336556,2026-06-19
a0M6g00000BqR4h,California Maritime Academy,Northern California Zone,Region 6,,Chapter,VALLEJO,California,United States,smces@csum.edu,000  000000,35.847046044565744,-120.01676038856449,2026-06-19
a0M6g00000BqR4i,University Of Denver,Rocky Mountain Zone,Region 6,,Chapter,DENVER,Colorado,United States,nsbeduchapter@gmail.com,678  8254454,38.74858778641499,-105.5388549703449,2026-06-19
a0M6g00000BqR4j,Devry University-Long Beach,Southern California Zone,Region 6,,Chapter,LONG BEACH,California,United States,nsbe-dulb@yahoo.com,000  000000,35.803570352839024,-119.61776332872232,2026-06-19
a0M6g00000BqR4k,Oregon State University,Northwest Zone,Region 6,,Chapter,Corvallis,Oregon,United States,nsbe.clubs@oregonstate.edu,(541) 737-6588,44.698521168759655,-122.14539668021757,2026-06-19
a0M6g00000BqR4l,Deanza College,Northern California Zone,Region 6,,Chapter,CUPERTINO,California,United States,,000  000000,35.98879676786643,-119.67839563408444,2026-06-19
a0M6g00000BqR4m,Devry University-Phoenix,Southwest Zone,Region 6,,Chapter,PHOENIX,Arizona,United States,,000  000000,33.99226245956423,-111.18542886122445,2026-06-19
a0M6g00000BqR4n,Colorado Technical University,Rocky Mountain Zone,Region 6,,Chapter,COLORADO SPRINGS,Colorado,United States,,000  000000,38.74024354340896,-105.53405511328243,2026-06-19
a0M6g00000BqR4o,University Of Colorado-Colorado Springs,Rocky Mountain Zone,Region 6,,Chapter,COLORADO SPRINGS,Colorado,United States,nsbeatuccs@gmail.com,720  2276343,38.87553240977308,-105.48653269691745,2026-06-19
a0M6g00000BqR4q,Sacramento City College,Northern California Zone,Region 6,,Chapter,SACRAMENTO,California,United States,r6scc.nsbe@gmail.com,916  5769204,36.16606585621994,-119.74018030200776,2026-06-19
a0M6g00000BqR4r,American River College,Northern California Zone,Region 6,,Chapter,SACRAMENTO,California,United States,arcnsbe@yahoogroups.com,000  000000,35.80068088394931,-119.77003410307829,2026-06-19
a0M6g00000BqR4s,University Of Southern Colorado,Rocky Mountain Zone,Region 6,,Chapter,PUEBLO,Colorado,United States,,000  000000,39.07643806410235,-105.5899336679674,2026-06-19
a0M6g00000BqR4v,Pittsburg State University,MO Zone,Region 5,,Chapter,Pittsburg,Kansas,United States,nsbe.pittstate@gmail.com,000  000000,38.76002098765199,-97.04011269347443,2026-06-19
a0M6g00000BqR4w,Baylor University,Big Tex Zone,Region 5,,Chapter,Waco,Texas,United States,stefan_james1@baylor.edu,(+1) (504) 3190961,31.351876308312644,-97.84408180089409,2026-06-19
a0M6g00000BqR4y,United States Air Force Academy,Rocky Mountain Zone,Region 6,,Chapter,USAF Academy,Colorado,United States,,000  000000,39.30031346611843,-105.02924679925067,2026-06-19
a0M6g00000BqR4z,University of Texas at El Paso,Big Tex Zone,Region 5,,Chapter,El Paso,Texas,United States,nsbe@utep.edu,000  000000,31.390186476410616,-97.3520428838085,2026-06-19
a0M6g00000BqR50,Utah State University Chapter,Rocky Mountain Zone,Region 6,,Chapter,LOGAN,Utah,United States,pepi.exe@gmail.com,000  000000,40.34566627853993,-111.76269570680311,2026-06-19
a0M6g00000BqR53,Moorpark College,Southern California Zone,Region 6,,Chapter,Moorpark,California,United States,worldmaker33@yahoo.com,000  000000,36.31150044820469,-119.93737745411079,2026-06-19
a0M6g00000BqR54,Bellevue College,Northwest Zone,Region 6,,Chapter,Bellevue,Washington,United States,bcnsbe@gmail.com,000  000000,47.42614962516335,-121.48053799086671,2026-06-19
a0M6g00000BqR55,New York City College Of Technology,Metro/LI Zone,Region 1,,Chapter,Brooklyn,New York,United States,citytechnsbe@gmail.com,(718) 249-6910,42.41602650088579,-74.97409144408455,2026-06-19
a0M6g00000BqR56,Paul Quinn College,Big Tex Zone,Region 5,,Chapter,Dallas,Texas,United States,randalljfields@hotmail.com,000  000000,30.97404964727025,-97.46576671013403,2026-06-19
a0M6g00000BqR58,Colorado School of Mines,Rocky Mountain Zone,Region 6,,Chapter,Golden,Colorado,United States,zmconteh@mines.edu,720-341-6674,38.89633532225059,-105.56326611233223,2026-06-19
a0M6g00000BqR5B,Devry University-Pomona,Southern California Zone,Region 6,,Chapter,POMONA,California,United States,,000  000000,36.10071709181662,-119.73974144198357,2026-06-19
a0M6g00000BqR5E,Minnesota State University- Moorhead,Primary Zone,Region 4,,Chapter,Moorhead,Minnesota,United States,abateiw@mnstate.edu,000  000000,45.50725295837021,-93.99293373291941,2026-06-19
a0M6g00000BqR5G,South Suburban College,Primary Zone,Region 4,,Chapter,South Holland,Illinois,United States,nsbessc@yahoo.com,000  000000,40.25593171487837,-89.10689010491122,2026-06-19
a0M6g00000BqR5H,Blazer Core Of Engineering,Primary Zone,Region 3,,Chapter,Valdosta,Georgia,United States,,000  000000,32.95624385580885,-83.51305365818084,2026-06-19
a0M6g00000BqR5J,Itt Technical Institute-Bessemer,Primary Zone,Region 3,,Chapter,Bessemer,Alabama,United States,rscottiii@itt-tech.edu,000  000000,32.6644845321999,-86.47692945129926,2026-06-19
a0M6g00000BqR5L,University Of Maine,New England Zone,Region 1,,Chapter,Orono,Maine,United States,oghenetega.dibie@maine.edu,000  000000,44.98539061367673,-69.39528970018995,2026-06-19
a0M6g00000BqR5O,Waterloo/Cedar Falls NSBE Professionals,OK Zone,Region 5,,Chapter,Cedar Falls,Iowa,United States,wcfnsbe.president@gmail.com,(319) 292-4711,41.89139184350328,-93.185721647119,2026-06-19
a0M6g00000BqR5P,Texas State University-San Marcos NSBE Chapter,Big Tex Zone,Region 5,,Chapter,San Marcos,Texas,United States,nsbe.txst.president@gmail.com,(1) (832) 805-3955,31.29847934214154,-97.45664986160793,2026-06-19
a0M6g00000BqR5Q,Lehman College,Metro/LI Zone,Region 1,,Chapter,Bronx,New York,United States,nsbelehman@gmail.com,000  000000,42.37880027956295,-74.92514540675398,2026-06-19
a0M6g00000BqR5R,Central Connecticut State University,New England Zone,Region 1,,Chapter,New Britain,Connecticut,United States,president.ccsu.nsbe@gmail.com,000  000000,41.69082434048734,-72.90366207007227,2026-06-19
a0M6g00000BqR5S,Cathedral International Nsbe Jr.,,Region 2,,Chapter,Perth Amboy,New Jersey,United States,,000  000000,40.4633292136172,-74.729327784812,2026-06-19
a0M6g00000BqR5T,Lbj Early College High School Nsbe Jr,Big Tex Zone,Region 5,,Chapter,Austin,Texas,United States,ronald.bell@austinisd.org,000  000000,31.19084569017295,-97.31095765217188,2026-06-19
a0M6g00000BqR5a,"University Of California, Los Angeles (UCLA)",Southern California Zone,Region 6,,Chapter,Los Angeles,California,United States,nsbe.bruins@gmail.com,(516) (972) 8038,35.858674986111076,-119.60149818162066,2026-06-19
a0M6g00000BqR5e,San Diego City College,Southern California Zone,Region 6,,Chapter,San Diego,California,United States,nsbesdcc@yahoo.com,000  000000,35.83277002376095,-119.52356306021,2026-06-19
a0M6g00000BqR5f,Idaho State University,Northwest Zone,Region 6,,Chapter,Pocatello,Idaho,United States,obimana@isu.edu,000  000000,43.94960425317647,-114.17367012410955,2026-06-19
a0M6g00000BqR5i,Solano Community College,Northern California Zone,Region 6,,Chapter,Fairfield,California,United States,,000  000000,35.86238855102646,-119.36034782786363,2026-06-19
a0M6g00000BqR5k,Nsbe Westchester Community College,Metro/LI Zone,Region 1,,Chapter,New Rochelle,New York,United States,,000  000000,42.376344923259566,-74.88247359687355,2026-06-19
a0M6g00000BqR5l,Calvin College,Primary Zone,Region 4,,Chapter,Grand Rapids,Michigan,United States,,000  000000,43.524454873240686,-84.32951461271185,2026-06-19
a0M6g00000BqR5m,Monroe College,Metro/LI Zone,Region 1,,Chapter,Bronx,New York,United States,nsbemonroe@gmail.com,000  000000,42.47794494397213,-75.12068265231258,2026-06-19
a0M6g00000BqR5n,Central Jersey Professionals,New Jersey Zone,Region 1,,Chapter,PISCATAWAY,New Jersey,United States,,732  474-7344,40.361957126750816,-74.80447656170492,2026-06-19
a0M6g00000BqR5o,Mid-Hudson Valley Professionals,Metro/LI Zone,Region 1,,Chapter,POUGHKEEPSIE,New York,United States,president.mhvprofessionals@gmail.com,954  756-3758,42.24704199001688,-75.17814708713506,2026-06-19
a0M6g00000BqRP7,Top/Httc Nsbe Jr.,Primary Zone,Region 3,,Chapter,Orlando,Florida,United States,httctutors@hotmail.com,000  000000,27.81174442803071,-81.63608164017631,2026-06-19
a0M6g00000BqRP8,Ocoee High School,Primary Zone,Region 3,,Chapter,Ocoee,Florida,United States,reiches2@ocps.net,000  000000,27.74246860708686,-81.67094075714083,2026-06-19
a0M6g00000BqRP9,Selma High School Mechanical Minds,Primary Zone,Region 3,,Chapter,SELMA,Alabama,United States,ddavishark@aol.com,000  000000,32.991417373004616,-86.58165869844154,2026-06-19
a0M6g00000BqRPA,Savannah Early College Nsbe Jr,Primary Zone,Region 3,,Chapter,Savannah,Georgia,United States,savannahec@gmail.com,000  000000,33.0351262509028,-83.57335859093418,2026-06-19
a0M6g00000BqRPB,Arc (Enthos),Primary Zone,Region 3,,Chapter,Augusta,Georgia,United States,j_rock08@yahoo.com,000  000000,33.34248436498307,-83.90926048804921,2026-06-19
a0M6g00000BqRPC,South Atlanta High School,Primary Zone,Region 3,,Chapter,Atlanta,Georgia,United States,agabriel@atlanta.k12.ga.us,000  000000,32.772591496130076,-83.93167769166246,2026-06-19
a0M6g00000BqRPD,D. M. Therrell High School,Primary Zone,Region 3,,Chapter,ATLANTA,Georgia,United States,plmanuel@atlanta.k12.ga.us,000  000000,33.15112329952837,-83.70004818944673,2026-06-19
a0M6g00000BqRPE,Robert Hungerford Preparatory High School,Primary Zone,Region 3,,Chapter,EATONVILLE,Florida,United States,grumblk@ocps.k12.fl.us,000  000000,27.958303991299292,-81.56692101068398,2026-06-19
a0M6g00000BqRPF,Mississippi School For Math And Science,Primary Zone,Region 3,,Chapter,Columbus,Mississippi,United States,mdavidson@msms.k12.us,000  000000,32.62519243082977,-89.39983941684693,2026-06-19
a0M6g00000BqRPG,Sheffield High School,Primary Zone,Region 3,,Chapter,SHEFFIELD,Alabama,United States,jlaustin@scs.k12.al.us,000  000000,32.99044350294946,-86.95175554136287,2026-06-19
a0M6g00000BqRPH,Southwest Dekalb High School,Primary Zone,Region 3,,Chapter,DECATUR,Georgia,United States,freder50@aol.com,000  000000,32.94555341244044,-83.77296601385702,2026-06-19
a0M6g00000BqRPI,Morrow High School,Primary Zone,Region 3,,Chapter,MORROW,Georgia,United States,tclarke@clayton.k12.ga.us,000  000000,32.8009471540375,-83.88962563922047,2026-06-19
a0M6g00000BqRPK,Norcross High School,Primary Zone,Region 3,,Chapter,NORCROSS,Georgia,United States,philip_belfrom@gwinnett.k12.ga.us,000  000000,33.34590822436302,-83.68654117396088,2026-06-19
a0M6g00000BqRPL,Martin Luther King Magnet High School,Primary Zone,Region 3,,Chapter,Nashville,Tennessee,United States,kimberly.gold@mnps.org,000  000000,35.66616887594419,-86.53156500392583,2026-06-19
a0M6g00000BqRPM,Loy Norrix High School,Primary Zone,Region 4,,Chapter,Kalamazoo,Michigan,United States,ryanjl@kalamazoo.k12.mi.us,000  000000,43.36371314567703,-84.23079700921308,2026-06-19
a0M6g00000BqRPN,Amos P. Godby High School,Primary Zone,Region 3,,Chapter,Tallahassee,Florida,United States,prattj@mail.godby.leon.k12.fl.us,000  000000,27.962490045736576,-81.70122430511283,2026-06-19
a0M6g00000BqRPO,Kipp: Ways Academy Nsbe Jr.,Primary Zone,Region 3,,Chapter,Atlanta,Georgia,United States,,000  000000,32.95407063143658,-83.30243191855297,2026-06-19
a0M6g00000BqRPR,Hughes Stem High School,PCI Zone,Region 4,,Chapter,Cincinnati,Ohio,United States,bkhatcher@gmail.com,000  000000,40.541215165202544,-82.44907873799731,2026-06-19
a0M6g00000BqRPS,"St. Xavier High School - Cincinnati, Oh",PCI Zone,Region 4,,Chapter,CINCINNATI,Ohio,United States,,000  000000,40.12171800405193,-82.51954142456646,2026-06-19
a0M6g00000BqRPT,"Walnut Hills High School - Cincinnati, Oh",PCI Zone,Region 4,,Chapter,CINCINNATI,Ohio,United States,bonnielg22@yahoo.com,000  000000,40.484734718793845,-83.02956982516542,2026-06-19
a0M6g00000BqRPU,"Milwaukee Wisconsin Jr. Chapter - Milwaukee, Wi",PCI Zone,Region 4,,Chapter,MILWAUKEE,Wisconsin,United States,,000  000000,44.330323599978456,-89.48624054442618,2026-06-19
a0M6g00000BqRPV,"Cass Technical High School - Detroit, Mi",PCI Zone,Region 4,,Chapter,DETROIT,Michigan,United States,kirk.goodlow@detroit12.org,000  000000,42.98522988012203,-84.56807242671078,2026-06-19
a0M6g00000BqRPW,"Hyde Park Academy - Chicago, Il",PCI Zone,Region 4,,Chapter,CHICAGO,Illinois,United States,,000  000000,40.577236657837425,-89.12938568225914,2026-06-19
a0M6g00000BqRPX,"Muhammad University-Islam - Chicago, Il",PCI Zone,Region 4,,Chapter,CHICAGO,Illinois,United States,mocha_mom@msn.com,000  000000,40.320440657258985,-89.02651711105247,2026-06-19
a0M6g00000BqRPY,"Aiken High School - Cincinnati, Oh",PCI Zone,Region 4,,Chapter,CINCINNATI,Ohio,United States,michael.foust@ae.ge.com,000  000000,40.25013217400974,-82.47200567313911,2026-06-19
a0M6g00000BqRPZ,"Reading Jr./Sr. High School - Reading, Oh",PCI Zone,Region 4,,Chapter,READING,Ohio,United States,,000  000000,40.585688824802055,-83.03750311230273,2026-06-19
a0M6g00000BqRPa,"Trotwood-Madison High School - Trotwood, Oh",PCI Zone,Region 4,,Chapter,TROTWOOD,Ohio,United States,pamoja@woh.rr.com,000  000000,40.7367072604863,-82.49947498298458,2026-06-19
a0M6g00000BqRPb,"Wylie E. Groves High School - Beverly Hills, Mi",PCI Zone,Region 4,,Chapter,BEVERLY HILLS,Michigan,United States,,000  000000,43.17535390650483,-84.30026739423735,2026-06-19
a0M6g00000BqRPc,"Illinois Math And Science Academy - Aurora, Il",PCI Zone,Region 4,,Chapter,AURORA,Illinois,United States,fogel@imsa.edu,000  000000,40.07395067230997,-88.63676368866803,2026-06-19
a0M6g00000BqRPd,"West Side High School - Gary, In",PCI Zone,Region 4,,Chapter,GARY,Indiana,United States,westside@garycsc.k12.in.us,000  000000,39.96540531527458,-86.15319048910885,2026-06-19
a0M6g00000BqRPe,"Jefferson High School - Dayton, Oh",PCI Zone,Region 4,,Chapter,DAYTON,Ohio,United States,,000  000000,40.10209150888889,-82.48699162077236,2026-06-19
a0M6g00000BqRPf,"Focus Hope Machinist Institute - Detroit, Mi",Primary Zone,Region 4,,Chapter,DETROIT,Michigan,United States,cat@focushope.edu,000  000000,42.996917652243134,-84.7175153593712,2026-06-19
a0M6g00000BqRPg,"Southfield Senior High School - Southfield, Mi",PCI Zone,Region 4,,Chapter,SOUTHFIELD,Michigan,United States,teaguerh@southfield.k12.mi.us,000  000000,43.076733312616646,-84.34235744151545,2026-06-19
a0M6g00000BqRPh,Young Professionals Of Tomorrow,PCI Zone,Region 4,,Chapter,Evansville,Indiana,United States,yptnsbejr@aol.com,000  000000,39.63816895904903,-85.97083124100838,2026-06-19
a0M6g00000BqRPi,Whitney M. Young Nsbe Jr,PCI Zone,Region 4,,Chapter,Chicago,Illinois,United States,lynnemuhammad@yahoo.com,000  000000,40.45884532752925,-89.31082310265371,2026-06-19
a0M6g00000BqRPj,"Grand Rapids Union High School - Grand Rapids, Mi",PCI Zone,Region 4,,Chapter,GRAND RAPIDS,Michigan,United States,,000  000000,42.980418883890096,-84.84993445808992,2026-06-19
a0M6g00000BqRPk,"Proviso East High School - Maywood, Il",PCI Zone,Region 4,,Chapter,MAYWOOD,Illinois,United States,,000  000000,40.42360462435341,-88.7750997323984,2026-06-19
a0M6g00000BqRPl,Ursuline Academy Of Cincinnati,Primary Zone,Region 4,,Chapter,CINCINNATI,Ohio,United States,,000  000000,40.20576997443917,-82.52032880995385,2026-06-19
a0M6g00000BqRPm,Indianapolis Pike High School,PCI Zone,Region 4,,Chapter,Indianapolis,Indiana,United States,tnlomax@pike.k12.in.us,000  000000,39.539488358107285,-86.04760330245082,2026-06-19
a0M6g00000BqRPn,Newberry High School NSBE Jr.,Primary Zone,Region 3,,Chapter,Newberry,Florida,United States,speedfg@gm.sbac.edu,000  000000,28.065735801120596,-81.49630712062694,2026-06-19
a0M6g00000BqRPo,Robinswood Middle School,Primary Zone,Region 3,,Chapter,Orlando,Florida,United States,townser@ocps.net,000  000000,27.904963548785048,-81.45019684694124,2026-06-19
a0M6g00000BqRPp,Western International High School,PCI Zone,Region 4,,Chapter,DETROIT,Michigan,United States,,000  000000,43.00472390968295,-84.74484752249667,2026-06-19
a0M6g00000BqRPq,East Technical High School,PCI Zone,Region 4,,Chapter,CLEVELAND,Ohio,United States,sharpro@cmsdnet.net,000  000000,40.126229575513946,-82.76174330686491,2026-06-19
a0M6g00000BqRPr,Memphis Academy Of Science And Engineering Nsbe,Primary Zone,Region 3,,Chapter,Memphis,Tennessee,United States,lbanks@discovermase.org,000  000000,35.91947668983019,-86.60133670879652,2026-06-19
a0M6g00000BqRPs,Hawthorne High School Nsbe Jr.,Primary Zone,Region 3,,Chapter,Hawthorne,Florida,United States,ufnsbepci@ufl.edu,000  000000,28.012070769833354,-81.92813390529125,2026-06-19
a0M6g00000BqRPt,Renaissance High School,PCI Zone,Region 4,,Chapter,Detroit,Michigan,United States,joebell@umich.edu,000  000000,43.490852764354614,-84.75096595639177,2026-06-19
a0M6g00000BqRPu,A.R. Johnson Health Science And Engineering,Primary Zone,Region 3,,Chapter,Augusta,Georgia,United States,holidal@rcboe.org,000  000000,32.88015012592246,-83.49614071190308,2026-06-19
a0M6g00000BqRPv,Light Of The City Resource Center,Terror Zone,Region 2,,Chapter,Lanham,Maryland,United States,lightofcitynsbe@yahoo.com,000  000000,39.40008934942908,-76.72402047581605,2026-06-19
a0M6g00000BqRPw,Vine Middle School,Primary Zone,Region 3,,Chapter,Knoxville,Tennessee,United States,bmccrack7@hotmail.com,000  000000,35.43599522049391,-86.61092872105073,2026-06-19
a0M6g00000BqRPx,Memphis Challenge Nsbe Jr.,Primary Zone,Region 3,,Chapter,Memphis,Tennessee,United States,hjh_316@yahoo.com,000  000000,35.427490386106115,-86.42344300204323,2026-06-19
a0M6g00000BqRPy,F.E.A. And U.A.B. Nsbe Jr.,Primary Zone,Region 3,,Chapter,BIRMINGHAM,Alabama,United States,uab_nsbe_jr@yahoo.com,000  000000,32.95337579957044,-87.01994050750424,2026-06-19
a0M6g00000BqRPz,Yes/Secme Nsbe Jr,Primary Zone,Region 3,,Chapter,Clearwater,Florida,United States,njsimonsphd@yahoo.com,000  000000,27.48048370407694,-81.90830973978379,2026-06-19
a0M6g00000BqRQ0,Glass City Alumni Extension,Primary Zone,Region 4,,Chapter,Maumee,Ohio,United States,nsbetoledoalumni@yahoo.com,000  000000,40.72480202568793,-82.79392255027906,2026-06-19
a0M6g00000BqRQ1,West Middle School Nsbe Jr.,Primary Zone,Region 3,,Chapter,Tullahoma,Tennessee,United States,henryl1@k12tn.net,000  000000,35.94670166383899,-86.59685916052456,2026-06-19
a0M6g00000BqRQ2,Ace Tech High School,PCI Zone,Region 4,,Chapter,CHICAGO,Illinois,United States,l.c.washington@comcast.net,000  000000,40.400146204971044,-89.23454582173447,2026-06-19
a0M6g00000BqRQ3,East Middle School,Primary Zone,Region 3,,Chapter,Tullahoma,Tennessee,United States,cseay@k12tn.net,000  000000,36.060062117490666,-86.8314051572397,2026-06-19
a0M6g00000BqRQ4,ABT Nsbe Jr,PCI Zone,Region 4,,Chapter,Melvindale,Michigan,United States,chrisanthamurray@gmail.com,207  5099,43.38123005106528,-84.39625183878766,2026-06-19
a0M6g00000BqRQ5,Carver Early College,Primary Zone,Region 3,,Chapter,Atlanta,Georgia,United States,ecnsbejr@yahoo.com,000  000000,33.14508220867172,-83.33465791321314,2026-06-19
a0M6g00000BqRQ6,Greater Lexington Nsbe Jr.,Primary Zone,Region 3,,Chapter,Lexington,Kentucky,United States,dom.r.rowe@gmail.com,000  000000,37.42204729294404,-84.66422008308714,2026-06-19
a0M6g00000BqRQ7,Jefferson High School Nsbe Jr.,PCI Zone,Region 4,,Chapter,Lafayette,Indiana,United States,jeffersonhighschoolnsbejr@gmail.com,765-412-2847,39.78225007351854,-86.27635988936217,2026-06-19
a0M6g00000BqRQ8,Wilcox County,Primary Zone,Region 3,,Chapter,"Camden,",Alabama,United States,lilque2dog@yahoo.com,000  000000,32.54012326833842,-87.04726377308906,2026-06-19
a0M6g00000BqRQ9,E-STEM Metro NSBE Jr.,Primary Zone,Region 4,,Chapter,Columbus,Ohio,United States,vjohns@leademerging.org,614  5549225,40.23343588204688,-82.90162177736742,2026-06-19
a0M6g00000BqRQA,Southern Crescent Juniors,Primary Zone,Region 3,,Chapter,Jonesboro,Georgia,United States,spsbe.pci.chair@gmail.com,000  000000,32.99015124957695,-83.56538271707436,2026-06-19
a0M6g00000BqRQB,Africentric Early College Hs,PCI Zone,Region 4,,Chapter,Columbus,Ohio,United States,bsmith8357@columbus.k12.oh.us,000  000000,40.48302338219278,-82.8266473723901,2026-06-19
a0M6g00000BqRQC,Open Campus High School/Perry School For Learning,Primary Zone,Region 3,,Chapter,Jonesboro,Georgia,United States,apbattle@clayton.k12.ga.us,000  000000,32.976767176600084,-83.84073403131212,2026-06-19
a0M6g00000BqRQD,E. B Erwin High School,Primary Zone,Region 3,,Chapter,Center Point,Alabama,United States,rod0963@hotmail.com,000  000000,32.86848537388631,-86.91920136207793,2026-06-19
a0M6g00000BqRQE,Beery Middle School,PCI Zone,Region 4,,Chapter,Columbus,Ohio,United States,jwolford2971@wideopenwest.com,000  000000,40.06402488399415,-82.8220349690902,2026-06-19
a0M6g00000BqRQF,Briggs High School,PCI Zone,Region 4,,Chapter,Columbus,Ohio,United States,jcoplan3659@columbus.k12.oh.us,000  000000,40.37067587256312,-82.95699999225705,2026-06-19
a0M6g00000BqRQG,Brookhaven High School,PCI Zone,Region 4,,Chapter,Columbus,Ohio,United States,lray3640@columbus.k12.oh.us,000  000000,40.439503553185475,-82.71887466969766,2026-06-19
a0M6g00000BqRQH,Buckeye Middle School,PCI Zone,Region 4,,Chapter,Columbus,Ohio,United States,dranseyjr10156@columbus.k12.oh.us,000  000000,40.530184526777255,-82.66135106245916,2026-06-19
a0M6g00000BqRQI,Centennial High School,Primary Zone,Region 4,,Chapter,Columbus,Ohio,United States,knicholson6323@columbus.k12.oh.us,000  000000,40.49548613956472,-82.89356509372317,2026-06-19
a0M6g00000BqRQJ,Champion Middle School,Primary Zone,Region 4,,Chapter,Columbus,Ohio,United States,zwindle3718@columbus.k12.oh.us,000  000000,40.589985555390165,-82.73051393148023,2026-06-19
a0M6g00000BqRQK,Clearbrook Middle School,Primary Zone,Region 4,,Chapter,Columbus,Ohio,United States,,000  000000,40.34077573662592,-82.67670626334126,2026-06-19
a0M6g00000BqRQL,Nsbe Naacp Gwinnett County Chapter,Primary Zone,Region 3,,Chapter,Snellville,Georgia,United States,harrisw@ix.netcom.com,000  000000,32.94307913411518,-83.63415652877526,2026-06-19
a0M6g00000BqRQM,Columbus Alternative Hs,Primary Zone,Region 4,,Chapter,Columbus,Ohio,United States,jbell6909@columbus.k12.oh.us,000  000000,40.55447698193755,-82.4944329792934,2026-06-19
a0M6g00000BqRQN,Dominion Middle School,Primary Zone,Region 4,,Chapter,Columbus,Ohio,United States,glang@columbus.k12.oh.us,000  000000,40.68352303810663,-82.76237195237184,2026-06-19
a0M6g00000BqRQO,East At Arcadia High School,Primary Zone,Region 4,,Chapter,Columbus,Ohio,United States,jrader6810@columbus.k12.oh.us,000  000000,40.4029755803184,-82.55500571246532,2026-06-19
a0M6g00000BqRQP,Eastmoor Academy,Primary Zone,Region 4,,Chapter,Columbus,Ohio,United States,jlewis2006@columbus.k12.oh.us,000  000000,40.258898484220936,-82.52874734635846,2026-06-19
a0M6g00000BqRQQ,Eastmoor Middle School,Primary Zone,Region 4,,Chapter,Columbus,Ohio,United States,czielke3686@columbus.k12.oh.us,000  000000,40.38468215256219,-83.03381529296531,2026-06-19
a0M6g00000BqRQR,Metrobots,Primary Zone,Region 3,,Chapter,Jonesboro,Georgia,United States,metrobots@live.com,000  000000,32.741060402951064,-83.40367875227237,2026-06-19
a0M6g00000BqRQS,Franklin Alt. Middle School,Primary Zone,Region 4,,Chapter,Columbus,Ohio,United States,edemelo9217@columbus.k12.oh.us,000  000000,40.07768054183481,-82.91848699470644,2026-06-19
a0M6g00000BqRQT,Hilltonia Middle School,Primary Zone,Region 4,,Chapter,Columbus,Ohio,United States,sunrau7947@columbus.k12.oh.us,000  000000,40.27267402835108,-82.99381888836588,2026-06-19
a0M6g00000BqRQU,Independence High School,Primary Zone,Region 4,,Chapter,Columbus,Ohio,United States,cqualls@columbus.k12.oh.us,000  000000,40.25850835886139,-82.59503020329244,2026-06-19
a0M6g00000BqRQV,Johnson Park Middle School,Primary Zone,Region 4,,Chapter,Columbus,Ohio,United States,kwest4629@columbus.k12.oh.us,000  000000,40.049060990492045,-82.53589360283551,2026-06-19
a0M6g00000BqRQW,Linmoor Middle School,Primary Zone,Region 4,,Chapter,Columbus,Ohio,United States,dchaffin4976@columbus.k12.oh.us,000  000000,40.63836661650219,-82.85433189876592,2026-06-19
a0M6g00000BqRQX,Medina Middle School,Primary Zone,Region 4,,Chapter,Columbus,Ohio,United States,sreidtaylor6835@columbus.k12.oh.us,(614) 3656050,40.14631202934244,-82.69432671443845,2026-06-19
a0M6g00000BqRQY,Mifflin Alt. Middle School,Primary Zone,Region 4,,Chapter,Columbus,Ohio,United States,cmorris3007@columbus.k12.oh.us,000  000000,40.122553789105424,-82.85947144724523,2026-06-19
a0M6g00000BqRQZ,Mifflin High School,Primary Zone,Region 4,,Chapter,Columbus,Ohio,United States,mrichardson3638@columbus.k12.oh.us,000  000000,40.709683426630676,-82.41808986919146,2026-06-19
a0M6g00000BqRQa,Monroe Middle School,Primary Zone,Region 4,,Chapter,Columbus,Ohio,United States,dgill1471@columbus.k12.oh.us,000  000000,40.57925642394821,-82.89724194305546,2026-06-19
a0M6g00000BqRQc,Ridgeview Middle School,Primary Zone,Region 4,,Chapter,Columbus,Ohio,United States,jhigdon@columbus.k12.oh.us,000  000000,40.520148534416265,-82.62113054416119,2026-06-19
a0M6g00000BqRQd,Sherwood Middle School,Primary Zone,Region 4,,Chapter,Columbus,Ohio,United States,mconley@columbus.k12.oh.us,000  000000,40.310272186614554,-82.66629295578969,2026-06-19
a0M6g00000BqRQe,South High School,Primary Zone,Region 4,,Chapter,Columbus,Ohio,United States,kwillis@columbus.k12.oh.us,000  000000,40.04629235148297,-82.96857463897844,2026-06-19
a0M6g00000BqRQf,Starling Middle School,Primary Zone,Region 4,,Chapter,Columbus,Ohio,United States,deffron1013@columbus.k12.oh.us,000  000000,40.40634481207708,-83.0002890870192,2026-06-19
a0M6g00000BqRQg,"Metro Academic & Classical Academy - St. Louis, Mo",MO Zone,Region 5,,Chapter,ST. LOUIS,Missouri,United States,,000  000000,38.222219807513575,-92.05295499661484,2026-06-19
a0M6g00000BqRQh,St. Augustine High School - New Orleans NSBE Jr.,Cajun Zone,Region 5,,Chapter,NEW ORLEANS,Louisiana,United States,mphmd@hotmail.com,000  000000,31.511939101878525,-91.82862640038009,2026-06-19
a0M6g00000BqRQi,"A&M Consolidated High School - College Station, Tx",Big Tex Zone,Region 5,,Chapter,COLLEGE STATION,Texas,United States,,000  000000,31.2918358116172,-97.22023583497162,2026-06-19
a0M6g00000BqRQj,"James Madison Senior High School - Houston, Tx",Big Tex Zone,Region 5,,Chapter,HOUSTON,Texas,United States,,000  000000,30.803604121998145,-97.59968907072196,2026-06-19
a0M6g00000BqRQk,"Jesse H. Jones High School - Houston, Tx",Big Tex Zone,Region 5,,Chapter,HOUSTON,Texas,United States,cclansy@houstonisd.org,000  000000,30.979287901089346,-97.85742650144768,2026-06-19
a0M6g00000BqRQl,"Booker T. Washington High School - Houston, Tx",Big Tex Zone,Region 5,,Chapter,HOUSTON,Texas,United States,llewis4@houstonisd.org,000  000000,31.233218120956323,-97.60981568087419,2026-06-19
a0M6g00000BqRQm,"Dunbar High School - Fort Worth, Tx",Big Tex Zone,Region 5,,Chapter,FORT WORTH,Texas,United States,jjacks@fortworthisd.net,000  000000,31.033015853933282,-97.80798991833073,2026-06-19
a0M6g00000BqRQn,"Dunbar Middle School - Fort Worth, Tx",Big Tex Zone,Region 5,,Chapter,FORT WORTH,Texas,United States,,000  000000,30.83113565656161,-97.27848846449065,2026-06-19
a0M6g00000BqRQo,"Lyndon B. Johnson High School - Austin, Tx",Big Tex Zone,Region 5,,Chapter,AUSTIN,Texas,United States,,000  000000,30.735741362281995,-97.75046440053941,2026-06-19
a0M6g00000BqRQp,"Northside High School - Lafayette, La",Cajun Zone,Region 5,,Chapter,LAFAYETTE,Louisiana,United States,dcspikes@lpssonline.com,000  000000,31.023987531220172,-91.8746667203189,2026-06-19
a0M6g00000BqRQq,"Lawrence High School - Lawrence, Ks",OK Zone,Region 5,,Chapter,LAWRENCE,Kansas,United States,snilhas@usd497.org,000  000000,38.58711162111036,-96.73118301690452,2026-06-19
a0M6g00000BqRQr,"Xavier Preparatory High School - New Orleans, La",Cajun Zone,Region 5,,Chapter,NEW ORLEANS,Louisiana,United States,principal@xavierprep.com,000  000000,30.87842673418982,-92.047237782161,2026-06-19
a0M6g00000BqRQs,Lincoln College Preparatory Academy,MO Zone,Region 5,,Chapter,KANSAS CITY,Missouri,United States,grichber@kcmsd.net,000  000000,38.69659686933378,-92.19205590966509,2026-06-19
a0M6g00000BqRQt,"St. Mary'S Academy - New Orleans, La",Cajun Zone,Region 5,,Chapter,NEW ORLEANS,Louisiana,United States,lross70889@aol.com,000  000000,31.273950335093993,-91.74866272125405,2026-06-19
a0M6g00000BqRQu,"Bryan High School - Bryan, Tx",Big Tex Zone,Region 5,,Chapter,BRYAN,Texas,United States,ffosterwalker@bryanisd.org,000  000000,31.238519113327673,-97.87278506279499,2026-06-19
a0M6g00000BqRQv,Quest For Excellence,Primary Zone,Region 4,,Chapter,Minneapolis,Minnesota,United States,,000  000000,45.60107986945283,-93.87252279531683,2026-06-19
a0M6g00000BqRQx,Brian Piccolo Specialty School,Primary Zone,Region 4,,Chapter,Chicago,Illinois,United States,lilhizerve@hotmail.com,000  000000,40.23637653830813,-88.74500178869897,2026-06-19
a0M6g00000BqRQy,Capa At Ellis Arts Academy,PCI Zone,Region 4,,Chapter,Rockford,Illinois,United States,bwillstar@yahoo.com,000  000000,40.337257756011105,-88.79809768737843,2026-06-19
a0M6g00000BqRQz,Ottawa Hills High School,PCI Zone,Region 4,,Chapter,Grand Rapids,Michigan,United States,nsbepci_04gv@yahoo.com,000  000000,43.57302886181682,-84.53274096196755,2026-06-19
a0M6g00000BqRR0,International Preparatory School,Primary Zone,Region 4,,Chapter,BEDFORD HEIGHTS,Ohio,United States,rufindascott@sbcglobal.net,000  000000,40.67546957070994,-82.70392824162411,2026-06-19
a0M6g00000BqRR1,Agape Werks,Primary Zone,Region 4,,Chapter,CHICAGO,Illinois,United States,agapewerks@msn.com,000  000000,40.594649009183605,-89.09772344308593,2026-06-19
a0M6g00000BqRR2,Indianapolis Public Schools - Ips Nsbe Jr.,PCI Zone,Region 4,,Chapter,INDIANAPOLIS,Indiana,United States,powelljd@ips.k12.in.us,000  000000,39.84859787097204,-86.2362902712968,2026-06-19
a0M6g00000BqRR3,Flint Community Schools,PCI Zone,Region 4,,Chapter,FLINT,Michigan,United States,nsbe_a_pci05@yahoo.com,000  000000,43.05010380112725,-84.60710824530892,2026-06-19
a0M6g00000BqRR4,Stem Columbus,Primary Zone,Region 4,,Chapter,COLUMBUS,Ohio,United States,slaughter@edcouncil.org,000  000000,40.68091937078617,-82.67333243174468,2026-06-19
a0M6g00000BqRR5,Hamilton High School,PCI Zone,Region 4,,Chapter,MILWAUKEE,Wisconsin,United States,sajames@uwm.edu,000  000000,44.04279760770588,-89.72930905507327,2026-06-19
a0M6g00000BqRR6,George Washington Carver Academy,Primary Zone,Region 4,,Chapter,HIGHLAND PARK,Michigan,United States,yswayze@yahoo.com,000  000000,43.11074010676389,-84.868718807741,2026-06-19
a0M6g00000BqRR7,Kent State Upward Bound Programs,PCI Zone,Region 4,,Chapter,KENT,Ohio,United States,kpreer@kent.edu,000  000000,40.68800532095282,-82.80116987022019,2026-06-19
a0M6g00000BqRR8,Southeastern High School,Primary Zone,Region 4,,Chapter,DETROIT,Michigan,United States,williams3690@sbcglobal.net,000  000000,43.191892550694554,-84.46716096590959,2026-06-19
a0M6g00000BqRR9,Trinity Higher Education Coorporation,Primary Zone,Region 4,,Chapter,CHICAGO,Illinois,United States,rhazley@tucc.org,000  000000,40.00457711940511,-89.14152152537943,2026-06-19
a0M6g00000BqRRA,Fmbc 2Nd Wave Nsbe Jr.,Primary Zone,Region 4,,Chapter,Chicago,Illinois,United States,jeycjay@sbcglobal.net,000  000000,40.49158042598923,-88.89249815885151,2026-06-19
a0M6g00000BqRRB,Cosi,Primary Zone,Region 4,,Chapter,Columbus,Ohio,United States,jobiofuma@mail.cosi.org,000  000000,40.72604716327977,-82.68066460323936,2026-06-19
a0M6g00000BqRRC,Arts Impact Middle School,Primary Zone,Region 4,,Chapter,Columbus,Ohio,United States,jspackjr6461@columbus.k12.oh.us,000  000000,40.37303711153941,-82.5819122057712,2026-06-19
a0M6g00000BqRRD,Beechcroft High School,PCI Zone,Region 4,,Chapter,Columbus,Ohio,United States,deberhardt2975@columbus.k12.oh.us,614  3655364,40.67111251037483,-82.61042783729715,2026-06-19
a0M6g00000BqRRE,Clinton Middle School,Primary Zone,Region 4,,Chapter,Columbus,Ohio,United States,,000  000000,40.713030856484565,-82.56751138048328,2026-06-19
a0M6g00000BqRRF,Fort Hayes Mec - High School,Primary Zone,Region 4,,Chapter,Columbus,Ohio,United States,emeast2002@yahoo.com,000  000000,40.645544006783346,-83.03504215017145,2026-06-19
a0M6g00000BqRRG,Linden-Mckinley High School,Primary Zone,Region 4,,Chapter,Columbus,Ohio,United States,,000  000000,40.551472452095645,-82.80685291033085,2026-06-19
a0M6g00000BqRRH,Samm (Science And Mathematics At Marquette),Primary Zone,Region 4,,Chapter,MILUAKEE,Wisconsin,United States,jennifer.neuenschwander@marquette.edu,000  000000,44.30571566168789,-89.50863631336235,2026-06-19
a0M6g00000BqRRI,"Lincoln High School - Dallas, Tx",Big Tex Zone,Region 5,,Chapter,DALLAS,Texas,United States,,000  000000,31.3833575816939,-97.22425634299786,2026-06-19
a0M6g00000BqRRJ,"Normandy Senior High - St Louis, Mo",MO Zone,Region 5,,Chapter,ST LOUIS,Missouri,United States,,000  000000,38.30784477184154,-92.12474055179347,2026-06-19
a0M6g00000BqRRK,Greater Baton Rouge Engineering Program,Cajun Zone,Region 5,,Chapter,BATON ROUGE,Louisiana,United States,cherylepeters@cox.net,000  000000,31.34453447655469,-91.97525999708087,2026-06-19
a0M6g00000BqRRL,Worthing Senior High School,Big Tex Zone,Region 5,,Chapter,HOUSTON,Texas,United States,,000  000000,30.791195842404957,-97.8847981278,2026-06-19
a0M6g00000BqRRM,"North Forest High School - Houston, Tx",Big Tex Zone,Region 5,,Chapter,HOUSTON,Texas,United States,v_dutton21@hotmail.com,000  000000,31.248627189270426,-97.57067118072817,2026-06-19
a0M6g00000BqRRN,"Estacado High School - Lubbock, Tx",Big Tex Zone,Region 5,,Chapter,LUBBOCK,Texas,United States,,000  000000,31.39436511864645,-97.58797958066445,2026-06-19
a0M6g00000BqRRO,St. Louis Metro Gateway,MO Zone,Region 5,,Chapter,Ferguson,Missouri,United States,pci@nsbe-stl.org,(314) 229-3713,38.79062688535169,-92.35026479846417,2026-06-19
a0M6g00000BqRRP,Mckinley High NSBE JR.,Cajun Zone,Region 5,,Chapter,BATON ROUGE,Louisiana,United States,nsbe.mck@gmail.com,255  3447696,31.375123505391983,-92.15843150938173,2026-06-19
a0M6g00000BqRRQ,Seagoville Nsbe Jr,Big Tex Zone,Region 5,,Chapter,Dallas,Texas,United States,jalong@utdallas.edu,000  000000,31.093310197096436,-97.35201914910999,2026-06-19
a0M6g00000BqRRR,Waynesville High School,MO Zone,Region 5,,Chapter,Waynesville,Missouri,United States,dcampbell@waynesville.k12.mo.us,000  000000,38.75337616705392,-92.0625598365678,2026-06-19
a0M6g00000BqRRS,Jack Yates High School,Big Tex Zone,Region 5,,Chapter,HOUSTON,Texas,United States,,000  000000,30.730366509040824,-97.65256936108528,2026-06-19
a0M6g00000BqRRT,Washington Parish Engineering Club,Cajun Zone,Region 5,,Chapter,Bogalusa,Louisiana,United States,kwmart22@yahoo.com,000  000000,30.853634930619695,-92.14130739621982,2026-06-19
a0M6g00000BqRRU,Ames High School,MO Zone,Region 5,,Chapter,AMES,Iowa,United States,,000  000000,42.134252940067235,-93.0612452625818,2026-06-19
a0M6g00000BqRRV,Science And Engineering Magnet NSBE Jr.,Big Tex Zone,Region 5,,Chapter,Dallas,Texas,United States,iboc1@tx.rr.com,000  000000,31.24609147792614,-97.30764141636104,2026-06-19
a0M6g00000BqRRW,Sharpstown Senior High School,Big Tex Zone,Region 5,,Chapter,HOUSTON,Texas,United States,jcoley@houstonisd.org,000  000000,31.22208902793356,-97.35285088552536,2026-06-19
a0M6g00000BqRRX,Pearce Middle School,Big Tex Zone,Region 5,,Chapter,AUSTIN,Texas,United States,marylaurinethomas@sbcglobal.net,000  000000,30.738761596876298,-97.7492863946911,2026-06-19
a0M6g00000BqRRY,Pflugerville Nsbe Jr. Chapter,Big Tex Zone,Region 5,,Chapter,Pflugerville,Texas,United States,toni.henton@sbcglobal.net,000  000000,31.139815441362675,-97.31277328676262,2026-06-19
a0M6g00000BqRRZ,Cedar Park Nsbe Jr. Chapter,Big Tex Zone,Region 5,,Chapter,Cedar Park,Texas,United States,norma.bishop@leanderisd.org,000  000000,30.707637087457762,-97.55322046051856,2026-06-19
a0M6g00000BqRRa,Reagan High School,Big Tex Zone,Region 5,,Chapter,AUSTIN,Texas,United States,dmalone@austinisd.org,000  000000,31.17858817955508,-97.89273589760998,2026-06-19
a0M6g00000BqRRb,"Booker T. Washington - Tulsa, Ok",OK Zone,Region 5,,Chapter,Tulsa,Oklahoma,United States,tswoodberry@yahoo.com,000  000000,35.49629089028737,-96.65197258303141,2026-06-19
a0M6g00000BqRRc,Roneagles Nsbe Jr.,Cajun Zone,Region 5,,Chapter,New Orleans,Louisiana,United States,mrsbocage@yahoo.com,000  000000,31.2896749661991,-92.05144414564758,2026-06-19
a0M6g00000BqRRd,Parkview High School Nsbe Jr.,OK Zone,Region 5,,Chapter,Little Rock,Arkansas,United States,angela.burton@lrsd.org,000  000000,35.21665079074234,-92.47950100361335,2026-06-19
a0M6g00000BqRRe,South Houston NSBE Jr Chapter,Big Tex Zone,Region 5,,Chapter,Richmond,Texas,United States,southhoustonnsbejr@gmail.com,7135502917,31.301828269800843,-97.70420044421677,2026-06-19
a0M6g00000BqRRf,Northwest Dallas Local,Big Tex Zone,Region 5,,Chapter,Coppell,Texas,United States,cherie_agnew@parkplacetexas.com,000  000000,31.117711175618204,-97.63560295257652,2026-06-19
a0M6g00000BqRRg,Tarrant County Nsbe Jr,Big Tex Zone,Region 5,,Chapter,Mansfield,Texas,United States,afleming@brainstormtexas.com,817  527-2226,30.89686453552855,-97.29287070647969,2026-06-19
a0M6g00000BqRRh,Missouri City Nsbe Jr.,Big Tex Zone,Region 5,,Chapter,Missouri City,Texas,United States,missouricitynsbe@yahoo.com,000  000000,30.835802577357647,-97.85409288613496,2026-06-19
a0M6g00000BqRRi,Johnson County Nsbe Jr Chapter,OK Zone,Region 5,,Chapter,Olathe,Kansas,United States,,000  000000,38.41594885698196,-96.5741385966509,2026-06-19
a0M6g00000BqRRk,Great Commission Baptist Church,Big Tex Zone,Region 5,,Chapter,Fort Worth,Texas,United States,cornelljonesii@sbcglobal.net,000  000000,31.269689124183397,-97.21434064095327,2026-06-19
a0M6g00000BqRRl,North Houston Chapter Nsbe Jr,Big Tex Zone,Region 5,,Chapter,The Woodlands,Texas,United States,soarestf@hotmail.com,000  000000,30.911940439907816,-97.6279016342081,2026-06-19
a0M6g00000BqRRm,Great Commission Baptist Church Nsbe Jr,Big Tex Zone,Region 5,,Chapter,Fort Worth,Texas,United States,,000  000000,30.80026189462074,-97.51105064926388,2026-06-19
a0M6g00000BqRRn,Central Texans Heat,Big Tex Zone,Region 5,,Chapter,Round Rock,Texas,United States,ctxheat@yahoo.com,000  000000,31.402793026084044,-97.42284429291554,2026-06-19
a0M6g00000BqRRo,Confluence Preparatory Academy,MO Zone,Region 5,,Chapter,Saint Louis,Missouri,United States,scott.clithero@confluence.edisonlearning.com,000  000000,38.52273398828936,-92.36370963495474,2026-06-19
a0M6g00000BqRRq,R.B. Stall High School NSBE Jr.,Comfort Zone,Region 2,,Chapter,North Charleston,South Carolina,United States,georgetta_simmons@charleston.k12.sc.us,843  7642200,34.14760113219989,-80.94716538270876,2026-06-19
a0M6g00000BqRRr,"Garfield High School - Seattle, Wa",Northwest Zone,Region 6,,Chapter,SEATTLE,Washington,United States,,000  000000,47.144958839319145,-121.5847290757606,2026-06-19
a0M6g00000BqRRs,"Tucson Magnet High School - Tucson, Az",Southwest Zone,Region 6,,Chapter,TUCSON,Arizona,United States,abel.morado@tusd1.org,000  000000,33.426775668193436,-111.63983567361785,2026-06-19
a0M6g00000BqRRt,"Greater Albuquerque - Albuquerque, Nm - Links",Southwest Zone,Region 6,,Chapter,ALBUQUERQUE,New Mexico,United States,nsbeabq@gmail.com,(505) 507-5112,34.50288314669994,-106.28118605844988,2026-06-19
a0M6g00000BqRRu,"George Washington High School - Denver, Co",Rocky Mountain Zone,Region 6,,Chapter,DENVER,Colorado,United States,mario_williams@dpsk12.org,000  000000,39.15398918546626,-105.42079927633476,2026-06-19
a0M6g00000BqRRv,"Highland High School - Albuquerque, Nm",Southwest Zone,Region 6,,Chapter,ALBUQUERQUE,New Mexico,United States,,000  000000,34.784782240053694,-105.92703550900879,2026-06-19
a0M6g00000BqRRw,"Skyline High School - Oakland, Ca",Northern California Zone,Region 6,,Chapter,OAKLAND,California,United States,,000  000000,36.29257718510244,-119.65296435413853,2026-06-19
a0M6g00000BqRRx,Eastside College Preparatory Academy,Northern California Zone,Region 6,,Chapter,East Palo Alto,California,United States,shanekaj@gmail.com,000  000000,35.96538161257828,-119.4036662408589,2026-06-19
a0M6g00000BqRRy,Palisades Charter High School,Southern California Zone,Region 6,,Chapter,PACIFIC PALISADES,California,United States,,000  000000,35.93077098181646,-119.80382408863832,2026-06-19
a0M6g00000BqRRz,"Venice High School - Los Angeles, Ca",Southern California Zone,Region 6,,Chapter,LOS ANGELES,California,United States,,000  000000,36.40254837009606,-119.66088456130045,2026-06-19
a0M6g00000BqRS0,"Foshay Learning Center - Los Angeles, Ca",Southern California Zone,Region 6,,Chapter,LOS ANGELES,California,United States,,000  000000,36.285825564592585,-119.61804264408536,2026-06-19
a0M6g00000BqRS1,Los Angeles Area Nsbe Jr,Southern California Zone,Region 6,,Chapter,LOS ANGELES,California,United States,l_robinson79@yahoo.com,000  000000,36.223610446306644,-119.82199569593962,2026-06-19
a0M6g00000BqRS2,Magnolia Science Academy,Southern California Zone,Region 6,,Chapter,Carson,California,United States,msa3@magnoliascience.org,000  000000,35.93516344313866,-119.80581935698193,2026-06-19
a0M6g00000BqRS3,Bellarmine College Preparatory,Northern California Zone,Region 6,,Chapter,San Jose,California,United States,,000  000000,35.87501209485839,-119.41954394429644,2026-06-19
a0M6g00000BqRS4,Seattle Mesa Program Nsbe Jr,Northwest Zone,Region 6,,Chapter,Seattle,Washington,United States,ssabay@engr.washington.edu,000  000000,47.24917485327508,-121.44745142390992,2026-06-19
a0M6g00000BqRS5,Henry Clay Middle School,Southern California Zone,Region 6,,Chapter,los angeles,California,United States,,000  000000,36.32058509759896,-119.482887123437,2026-06-19
a0M6g00000BqRS6,Phillis Wheatley High School Nsbe Jr. Chapter,Big Tex Zone,Region 5,,Chapter,Houston,Texas,United States,,000  000000,31.01135738100894,-97.5800808839893,2026-06-19
a0M6g00000BqRS7,King/Drew Hs Of Medicine And Science,Southern California Zone,Region 6,,Chapter,LOS ANGELES,California,United States,,000  000000,36.46249422425451,-119.55934576611467,2026-06-19
a0M6g00000BqRS8,"Four Ac - Antioch, Ca",Northern California Zone,Region 6,,Chapter,ANTIOCH,California,United States,,000  000000,36.336449910182516,-119.39977622154653,2026-06-19
a0M6g00000BqRS9,University Of Texas -El Paso Nsbe Jr,Big Tex Zone,Region 5,,Chapter,El Paso,Texas,United States,nsbe.utep.pci@live.com,000  000000,31.25579988536054,-97.78383545853251,2026-06-19
a0M6g00000BqRSA,Omaha North High Magnet Center,MO Zone,Region 5,,Chapter,Omaha,Nebraska,United States,anthony.williams@ops.org,000  000000,41.1688895136163,-98.54675608987982,2026-06-19
a0M6g00000BqRSB,Ontario High School,Southern California Zone,Region 6,,Chapter,ONTARIO,California,United States,pcipomona@yahoo.com,000  000000,36.2232484885948,-119.36281940026852,2026-06-19
a0M6g00000BqRSC,Rapha Village,Big Tex Zone,Region 5,,Chapter,Houston,Texas,United States,kuumbae@yahoo.com,000  000000,31.06339944501008,-97.61038025499256,2026-06-19
a0M6g00000BqRSD,Conrad Royal Chargers,Big Tex Zone,Region 5,,Chapter,Dallas,Texas,United States,hcoles@dallasisd.org,000  000000,30.729576925992717,-97.24161883436955,2026-06-19
a0M6g00000BqRSE,Mcmain Nsbe Jr,Cajun Zone,Region 5,,Chapter,New Orleans,Louisiana,United States,trudy_ferrand@nops.k12.la.us,000  000000,30.89164787889111,-92.18904963468661,2026-06-19
a0M6g00000BqRSF,Crestworth Pre-Engineering Magnet Nsbe Jr,Cajun Zone,Region 5,,Chapter,Baton Rouge,Louisiana,United States,hhill@ebrschools.org,000  000000,30.991792628053457,-92.17193369625714,2026-06-19
a0M6g00000BqRSG,"Woodrow Wilson High School - Dallas, Tx",Big Tex Zone,Region 5,,Chapter,Dallas,Texas,United States,nsbejr@gmail.com,000  000000,31.023069489688236,-97.55219953912002,2026-06-19
a0M6g00000BqRSH,New Orleans Ae Nsbe Jr.,Cajun Zone,Region 5,,Chapter,New Orleans,Louisiana,United States,neworleansnsbepci@gmail.com,000  000000,31.03834496432001,-92.18213266219759,2026-06-19
a0M6g00000BqRSI,Johnson Space Center Area Pci,Big Tex Zone,Region 5,,Chapter,WEBSTER,Texas,United States,marietta.leonard@boeing.com,000  000000,30.782607257774462,-97.64430793540706,2026-06-19
a0M6g00000BqRSJ,Mount Carmel High School,Southern California Zone,Region 6,,Chapter,San Diego,California,United States,,000  000000,35.80857291557857,-119.54283119207305,2026-06-19
a0M6g00000BqRSK,Y.O.U Computer Clubhouse,Southern California Zone,Region 6,,Chapter,Los Angeles,California,United States,mssimms7170@yahoo.com,000  000000,35.91111737906737,-119.82011390185144,2026-06-19
a0M6g00000BqRf9,Choice Of Pride NSBE JR,Cajun Zone,Region 5,,Chapter,New Orleans,Louisiana,United States,tamika.bruno@choiceschoolsno.org,,31.095434044024667,-91.9261782568516,2026-06-19
a0M6g00000BqRfA,STEM-U-LATE NSBE JR,Danger Zone,Region 2,,Chapter,Portsmouth,Virginia,United States,info@edpoint.org,,37.42049949537236,-78.4415187403009,2026-06-19
a0M6g00000BqRfB,Montgomery (AL) - a Links-NSBE Jr. Chapter,Cajun Zone,Region 5,,Chapter,Montgomery,Alabama,United States,violetvisions@aol.com,205  8267155,33.060606194618614,-87.14026685624167,2026-06-19
a0M6g00000BqRfC,ROC City (Rochester) NSBE JR.,Upstate Zone,Region 1,,Chapter,Rochester,New York,United States,rit.nsbe.president@gmail.com,585  3685111,42.17144314906901,-74.95539959544496,2026-06-19
a0M6g00000BqRfD,Harmon Ranch Community NSBE JR,Big Tex Zone,Region 5,,Chapter,Fort Worth,Texas,United States,nsbejr.harmonranch.president@gmail.com,954  2326784,30.93765291270745,-97.6115320858975,2026-06-19
a0M6g00000BqRfE,Field Zone NSBE Jr.,PCI Zone,Region 4,,Chapter,Southfield,Michigan,United States,nsbejr.fz@gmail.com,248  3959663,43.523024796268615,-84.29725240564953,2026-06-19
a0M6g00000BqRfG,Sigma Betas of Charlotte,Comfort Zone,Region 2,,Chapter,Charlotte,North Carolina,United States,sbcofcharlotte@gmail.com,704  5648189,35.46230998039067,-79.93067569132259,2026-06-19
a0M6g00000BqRfH,Mid-Cities (TX) Future Engineers LINKS-NSBE Jr.,Big Tex Zone,Region 5,,Chapter,Irving,Texas,United States,mclc.president@gmail.com,817  9395325,30.874224997119835,-97.57755661961426,2026-06-19
a0M6g00000BqRfI,MOST NSBE JR - Birmingham Chapter,Primary Zone,Region 3,,Chapter,Birmingham,Alabama,United States,mostbirmingham@gmail.com,614  735-1266,32.93495185036117,-86.9813529871756,2026-06-19
a0M6g00000BqRfJ,Jersey City Public Schools District NSBE Jr (JCPS),New Jersey Zone,Region 1,,Chapter,Jersey City,New Jersey,United States,dcarson@jcboe.org,201  3693767,40.1804190194384,-74.2197417676876,2026-06-19
a0M6g00000BqRfK,Tri-Cities Professionals,Northwest Zone,Region 6,,Chapter,Richland,Washington,United States,nsbetricitiesprofessionals@gmail.com,5097698993,47.08490050289287,-121.5179552763323,2026-06-19
a0M6g00000BqRfL,Quad Cities NSBE Professionals,Primary Zone,Region 4,,Chapter,Moline,Illinois,United States,qcnsbe.president@gmail.com,,40.49754762911775,-89.23081919190977,2026-06-19
a0M6g00000BqRfM,Illuminate STEM NSBE JR,Big Tex Zone,Region 5,,Chapter,Dallas,Texas,United States,terrence.southern@illuminatestem.org,972  5250626,30.73764881400384,-97.81671723985303,2026-06-19
a0M6g00000BqRfN,Jackson Michigan Professionals,Professional Zone,Region 4,,Chapter,Jackson,Michigan,United States,,,43.61979423547148,-84.87961315272521,2026-06-19
a0M6g00000BqRfO,Suncoast Community High School,Primary Zone,Region 3,,Chapter,West Palm Beach,Florida,United States,suncoast.nsbe@gmail.com,561  3466912,27.548104382367946,-82.01488454096885,2026-06-19
a0M6g00000BqRfQ,Kigali Professionals Rwanda,International Zone,Region 4,,Chapter,Kicukiro district,,Rwanda,nsbe.kigalirda.president@gmail.com,250  788958335,,,2026-06-19
a0M6g00000BqRfR,City of San Diego,,,,Chapter,,,United States,,,39.55574062729354,-98.49539549936019,2026-06-19
a0M6g00000BqRfS,El Paso Engineering Excellence NSBE JR,Big Tex Zone,Region 5,,Chapter,El Paso,Texas,United States,elpasoengineeringexcellence@gmail.com,915  2364005,30.87363423611736,-97.51501256469852,2026-06-19
a0M6g00000BqRfT,H. D. Woodson STEM High School,Terror Zone,Region 2,,Chapter,Washington,District of Columbia,United States,clifton.martin@dc.gov,202  7943594,38.960574767936286,-76.78221226683715,2026-06-19
a0M6g00000BqRfW,Project M.A.D.E VII Foundation NSBE JR,Primary Zone,Region 4,,Chapter,Akron,Ohio,United States,projectmadevii.jcheatham@outlook.com,440  2221103,40.04210197503831,-82.51755637846034,2026-06-19
a0M6g00000BqRfX,Thomas Wootton High School NSBE JR,Terror Zone,Region 2,,Chapter,Rockville,Maryland,United States,leslie_l_richardson@mcpsmd.org,301  4047473,39.14732936049888,-77.03818055972653,2026-06-19
a0M6g00000BqRfZ,Sandy Creek NSBE Jr.,Primary Zone,Region 3,,Chapter,Tyrone,Georgia,United States,schsjrnsbe@gmail.com,937  8240826,33.2316751716947,-83.39422992074658,2026-06-19
a0M6g00000BqRfa,Young Engineers of Banneker Prep NSBE JR,New Jersey Zone,Region 1,,Chapter,Willingboro,New Jersey,United States,yep@bbprepcs.com,609  5310158,40.12688843862791,-74.22785542336813,2026-06-19
a0M6g00000BqRfb,McKinney Byrd Academy NSBE Jr,Cajun Zone,Region 5,,Chapter,Shreveport,Louisiana,United States,academymba@yahoo.com,318  5329849,31.13766620120906,-91.79540788196668,2026-06-19
a0M6g00000BqRfc,Class Matters NSBE Jr,OK Zone,Region 5,,Chapter,Oklahoma City,Oklahoma,United States,classmatters2010@gmail.com,,35.90459667353235,-97.02584174495256,2026-06-19
a0M6g00000BqRfd,Westlake Chapter NSBE Jr,Primary Zone,Region 3,,Chapter,Atlanta,Georgia,United States,lewisk8whs@gmail.com,404  4052625,33.25983054207408,-83.77019461752008,2026-06-19
a0M6g00000BqRfe,Charleston Charter School for Math & Science NSBE Jr.,O Zone,Region 2,,Chapter,Charleston,South Carolina,United States,mtemples@charlestonmathscience.org,843  8134174,34.066341465569046,-80.87449325679616,2026-06-19
a0M6g00000BqRff,Sigma Beta Club @ Harrell Budd NSBE Jr.,OK Zone,Region 5,,Chapter,Dallas,Texas,United States,gentlemansigolo@gmail.com,975  5028411,30.855935986657784,-97.62364273434754,2026-06-19
a0M6g00000BqRfg,AMS Knight Riderz NSBE Jr.,O Zone,Region 2,,Chapter,Columbia,South Carolina,United States,lisa.burden@richlandone.org,803  7353439,33.72923694405449,-81.24033112484375,2026-06-19
a0M6g00000BqRfh,National Society of Black Engineer Jr Chapter NSBE Jr.,O Zone,Region 2,,Chapter,Mississippi State,,United States,mls1248@msstate.edu,(662) 213-7167,39.499184339069785,-98.68696494121497,2026-06-19
a0M6g00000BqRfi,CLOSED PERM - Benjamin Banneker Charter Academy of Technology Chapter NSBE Jr.,MO Zone,Region 5,,Chapter,Kansas City,Missouri,United States,nsbejr@bbchartertech.org,816  9269110,38.11940890347224,-92.52252656969276,2026-06-19
a0M6g00000BqRfj,Foothill NSBE Jr.,Northern California Zone,Region 6,,Chapter,Pittsburg,California,United States,dennishansbejr94565@gmail.com,510  5575731,36.273831324595605,-119.53590013502148,2026-06-19
a0M6g00000BqRfl,Faith Academy NSBE Jr.,MO Zone,Region 5,,Chapter,Kansas City,Missouri,United States,,816  4552847,38.62309127052017,-92.41636078020902,2026-06-19
a0M6g00000BqRfm,Hales Franciscan NSBE Jr.,Primary Zone,Region 4,,Chapter,Chicago,Illinois,United States,anthony.daniels-halisi@halesfranciscan.org,773  2858400,40.62247061998239,-88.92045561638008,2026-06-19
a0M6g00000BqRfn,McNeel NSBE: Engineering at the HOME of the Lancers NSBE Jr.,Primary Zone,Region 4,,Chapter,Beloit,Wisconsin,United States,dolsen@sdb.k12.wi.us,608  3613838,44.00676143922264,-89.86590493698112,2026-06-19
a0M6g00000BqRfo,Central Academy of Excellence NSBE Jr.,MO Zone,Region 5,,Chapter,Kansas City,Missouri,United States,lallen@kcpublicschools.org,816  4182003,38.59125179885079,-92.51730724449055,2026-06-19
a0M6g00000BqRfp,Vidya Gawade Professionals,Primary Zone,Region 1,,Chapter,,,United States,vgawade@ptechnyc.org,718  2211593,39.83340489110743,-98.23525786684989,2026-06-19
a0M6g00000BqRfr,Phyllis Ruth Miller Elementary Greater Miami Links-Nsbe Jr.,Primary Zone,Region 3,,Chapter,Miami,Florida,United States,info@greatermiamilinksinc.org,786  2665521,27.41908432331334,-82.02517713867172,2026-06-19
a0M6g00000BqRfs,South Early College Engineers Nsbe Jr.,Big Tex Zone,Region 5,,Chapter,Houston,Texas,United States,southearlyrobo@gmail.com,832  3686816,31.399646207351356,-97.50421381610609,2026-06-19
a0M6g00000BqRft,Kappa Alpha Psi Guide Right- Region 1,Metro/LI Zone,Region 1,,Chapter,Alexandria,Virginia,United States,marlon.ridley@gmail.com,202  6433392,37.50817398286296,-77.89185646017214,2026-06-19
a0M6g00000BqRfu,Kappa Alpha Psi Guide Right- Region 3,Primary Zone,Region 3,,Chapter,Alexandria,Virginia,United States,marlon.ridley@gmail.com,(20264) 600-0000,38.035603210089384,-78.14462771082204,2026-06-19
a0M6g00000BqRfv,Kappa Alpha Psi Guide Right- Region 2,Danger Zone,Region 2,,Chapter,Alexandria,Virginia,United States,marlon.ridley@gmail.com,202  6133392,37.85459142090253,-78.32873696594939,2026-06-19
a0M6g00000BqRfw,Kappa Alpha Psi Guide Right- Region 4,PCI Zone,Region 4,,Chapter,Alexandria,Virginia,United States,marlon.ridley@gmail.com,202  6433392,37.4547007874604,-78.1037706737764,2026-06-19
a0M6g00000BqRfx,Kappa Alpha Psi Guide Right- Region 5,PCI Zone,Region 4,,Chapter,Alexandria,Virginia,United States,marlon.ridley@gmail.com,202  6433392,37.62566563524194,-78.05543326733775,2026-06-19
a0M6g00000BqRfy,Kappa Alpha Psi Guide Right- Region 6,At-Large,Region 6,,Chapter,Alexandria,Virginia,United States,marlon.ridley@gmail.com,202  6433392,38.004708623789824,-78.50725561925994,2026-06-19
a0M6g00000BqRfz,Fairfax Lions Nsbe Jr.,Northern California Zone,Region 6,,Chapter,Los Angeles,California,United States,mysmstfax@gmail.com,323  3701200,36.18320264228001,-119.8696676222192,2026-06-19
a0M6g00000BqRg0,"Cornerstone Schools of Washington, DC Inc. Nsbe Jr.",Comfort Zone,Region 2,,Chapter,Washington,District of Columbia,United States,,202  5750027,39.15915994853266,-77.19925184540672,2026-06-19
a0M6g00000BqRg1,Baltimore LINKS-NSBE Jr. Chapter,Comfort Zone,Region 2,,Chapter,BALTIMORE,Maryland,United States,cwrightbrown@yahoo.com,677  9741,39.14148509326479,-76.76462241193727,2026-06-19
a0M6g00000BqRg2,Pennsbury High School Nsbe Jr.,Comfort Zone,Region 2,,Chapter,Fairless Hills,Pennsylvania,United States,,215  9497680,40.51806855004148,-77.08542046548014,2026-06-19
a0M6g00000BqRg3,"Ramsay High School, LINKS-NSBE Jr. Chapter",Primary Zone,Region 3,,Chapter,Hoover,Alabama,United States,,(205) 790-0411,32.964709744300805,-86.74427354327642,2026-06-19
a0M6g00000BqRg4,SOCIT: Students of Color in Technology NSBE Jr.,Rocky Mountain Zone,Region 6,,Chapter,Denver,Colorado,United States,socit.advisor@gmail.com,720  2794709,39.24070656602933,-104.97271204680494,2026-06-19
a0M6g00000BqRg5,Kornblum School NSBE Jr.,Northern California Zone,Region 6,,Chapter,Hawthorne,California,United States,ljones@hawthorne.k12.ca.us,,36.05969367153056,-119.67135586368012,2026-06-19
a0M6g00000BqRg6,University of South Africa,,,,Chapter,,,United States,,,39.48702891455885,-98.37228001058273,2026-06-19
a0M6g00000BqRg7,C. F. Vigor High School NSBE Jr.,Primary Zone,Region 3,,Chapter,Mobile,Alabama,United States,vigor.nsbejr@gmail.com,251  2213045,32.820832046932196,-86.8555569987476,2026-06-19
a0M6g00000BqRg8,Bourgogne Professionals,International Zone,Region 2,,Chapter,Bourgogne,,France,skylar_laham@etu.u-bourgogne.fr,,,,2026-06-19
a0M6g00000BqRg9,Barack Obama School Of Leadership,Primary Zone,Region 4,,Chapter,Chicago Heights,Illinois,United States,,708  6689100,40.06530737416258,-88.71337750482722,2026-06-19
a0M6g00000BqRgB,Suny Maritime Collegiate,Primary Zone,Region 1,,Chapter,Bronx,New York,United States,nsbemaritime@gmail.com,,42.09223106802839,-74.82024388125355,2026-06-19
a0M6g00000BqRgC,SJAC Kappa League Nsbe Jr.,Primary Zone,Region 3,,Chapter,Jonesboro,Georgia,United States,claude3klub1911@yahoo.com,,32.795180909457706,-83.31998925932128,2026-06-19
a0M6g00000BqRgD,Colorado College,Rocky Mountain Zone,Region 6,,Chapter,Colorado Springs,Colorado,United States,peter.daring@coloradocollege.edu,770  8668318,38.834720233275284,-105.52142460497036,2026-06-19
a0M6g00000BqRgF,Highland Park Renaissance Academy,,,,Chapter,,,United States,,,40.079588002390395,-98.29069207910064,2026-06-19
a0M6g00000BqRgG,Ashanti NSBE Jr.,Primary Zone,Region 1,,Chapter,Brooklyn,New York,United States,kkwateng@schools.nyc.gov,718  7973702,41.96422918526631,-74.96919037827763,2026-06-19
a0M6g00000BqRgI,East Bay Collegiate chapter,Northern California Zone,Region 6,,Chapter,Hayward,California,United States,aainstem@gmail.com,720  5192135,36.27964943319398,-119.41670798633244,2026-06-19
a0M6g00000BqRgJ,Hillside High School NSBE Jr.,Comfort Zone,Region 2,,Chapter,Durham,North Carolina,United States,hhsnsbe@gmail.com,919  3584165,35.54540288652611,-79.7945053592054,2026-06-19
a0M6g00000BqRgK,"University of Rwanda, College of Science and Technology, (UR-CST) Kigali Chapter",International Zone,Region 4,,Chapter,Kigali,,Rwanda,nsbe.ur.cst@gmail.com,250  784890806,,,2026-06-19
a0M6g00000BqRgL,VBM Baltimore NSBE Jr.,Comfort Zone,Region 2,,Chapter,Washington,District of Columbia,United States,ariana.stowe@tmcf.org,301  8300479,39.066639487363815,-76.86502181634303,2026-06-19
a0M6g00000BqRgM,VBM Mississippi NSBE Jr.,Primary Zone,Region 3,,Chapter,Vicksburg,Mississippi,United States,terrance.burks@tmcf.org,646  9571190,32.939718091018264,-89.62974232695093,2026-06-19
a0M6g00000BqRgN,Albemarle County Public School System NSBE Jr.,Danger Zone,Region 2,,Chapter,Charlottesville,Virginia,United States,,,37.492567567763345,-77.88718669638537,2026-06-19
a0M6g00000BqRgO,Pasadena City College,Southern California Zone,Region 6,,Chapter,Pasadena,California,United States,nsbepcc@gmail.com,818  2926078,36.37210377752472,-119.47289579492715,2026-06-19
a0M6g00000BqRgP,South Carolina Governor's School for Science and Mathematics NSBE Jr.,Comfort Zone,Region 2,,Chapter,Hartsville,South Carolina,United States,staples@gssm.k12.sc.us,309  3930,33.576795734012514,-81.15192884304301,2026-06-19
a0M6g00000BqRgQ,Harvard College,New England Zone,Region 1,,Chapter,,,United States,,,39.99882025557535,-98.91330193379264,2026-06-19
a0M6g00000BqRgR,Alcorn Middle School,,,,Chapter,,,United States,,,40.16375724359509,-98.66549872375101,2026-06-19
a0M6g00000BqRgS,GSSM NSBE Jr.,Comfort Zone,Region 2,,Chapter,Florence,South Carolina,United States,pci@nsbeflorenceprofessionals.org,843  4684710,34.01041077358358,-80.67370723805837,2026-06-19
a0M6g00000BqRgT,University of Washington Bothell,Rocky Mountain Zone,Region 6,,Chapter,Bothell,Washington,United States,rkassala@uw.edu,425  3299926,47.32714292170506,-121.61710125798024,2026-06-19
a0M6g00000BqRgU,Gaithersburg High School NSBE Jr.,Comfort Zone,Region 2,,Chapter,Gaithersburg,Maryland,United States,jjgarrant11@gmail.com,240  720,39.14006479022878,-76.74540843837636,2026-06-19
a0M6g00000BqRgV,The Collin County Chapter of Texas NSBE Jr.,Big Tex Zone,Region 5,,Chapter,Dallas,Texas,United States,kburnett57@yahoo.com,,30.99088498433736,-97.49221867089261,2026-06-19
a0M6g00000BqRgW,The Dogwood City (GA) NSBE Jr. Chapter of The Links Inc.,Primary Zone,Region 3,,Chapter,Atlanta,Georgia,United States,kaiwilliams.slaton@gmail.com,404  2814674,33.345385958696546,-83.66572582036139,2026-06-19
a0M6g00000BqRgX,Lancaster ISD NSBE Jr.,Big Tex Zone,Region 5,,Chapter,Lancaster,Texas,United States,,972  2181426,30.842206526525445,-97.64941681198191,2026-06-19
a0M6g00000BqRgY,Jovon Cheatham NSBE Jr.,At-Large,Region 4,,Chapter,Akron,Ohio,United States,projectmadevii.jcheatham@outlook.com,440  2221103,40.31465788781518,-83.02313891488164,2026-06-19
a0M6g00000BqRgZ,Christopher Newport University,O Zone,Region 2,,Chapter,Newport News,Virginia,United States,,703  4313760,37.53334705038819,-78.04077454862443,2026-06-19
a0M6g00000BqRga,Manhattan Collegiate Chapter of NSBE,New England Zone,Region 1,,Chapter,Bronx,New York,United States,mcnsbe@gmail.com,718  8627147,42.05336042794623,-74.62962212570095,2026-06-19
a0M6g00000BqRgc,Consolidated Nuclear Security (CNS),At-Large,Region 3,,Chapter,Spring City,Tennessee,United States,renee.harper@cns.doe.gov,865  5748072,35.56836272175102,-86.97309784642663,2026-06-19
a0M6g00000BqRgd,Titan Chapter - St. Petersburg College,At-Large,Region 3,,Chapter,Saint Petersburg,Florida,United States,tillman.adrian@spcollege.edu,727  3414362,27.943732194100182,-81.4200577636575,2026-06-19
a0M6g00000BqRge,Penn Upward Bound Math Science NSBE Jr.,Danger Zone,Region 2,,Chapter,Philadelphia,Pennsylvania,United States,edwardhm@upenn.edu,215  7460574,40.435431349810045,-77.41829332884816,2026-06-19
a0M6g00000BqRgf,Dream Academy Philadelphia NSBE Jr.,International Zone,Region 2,,Chapter,Philadelphia,Pennsylvania,United States,mwilliams@usdreamacademy.org,215  3391090,40.37078829440976,-77.19434638904345,2026-06-19
a0M6g00000BqRgh,Twenty-First Century NSBE Jr.,At-Large,Region 4,,Chapter,Gary,Indiana,United States,,219  8887130,39.82731764887274,-86.42667011210183,2026-06-19
a0M6g00000BqRgi,Northern Arizona University,Northern California Zone,Region 6,,Chapter,Flagstaff,Arizona,United States,nsbe@nau.edu,818  4372067,33.411380181892596,-111.4441770617716,2026-06-19
a0M6g00000BqRgj,College Prep Program NSBE Jr.,Big Tex Zone,Region 5,,Chapter,Fort Worth,Texas,United States,contact@ieexcellence.org,817  3432874,31.37601964334493,-97.45669755947314,2026-06-19
a0M6g00000BqRgk,Boys and Girls Club (All Star Imagination) NSBE Jr.,At-Large,Region 4,,Chapter,Fort Wayne,Indiana,United States,juelstam@gmail.com,240  8389761,39.84628058964003,-86.53079354817928,2026-06-19
a0M6g00000BqRgl,The Greater Gwinnet NSBE Jr.,Professional Zone,Region 3,,Chapter,Snellville,Georgia,United States,themcf2016@gmail.com,470  8659264,32.867324403384714,-83.78673223529782,2026-06-19
a0M6g00000BqRgm,North Alabama Center for Educational Excellence NSBE Jr.,End Zone,Region 3,,Chapter,Huntsville,Alabama,United States,edavis4139@aol.com,256  3724606,32.992033486825065,-86.52743244191477,2026-06-19
a0M6g00000BqRgn,NSBE Anne Arundel County,Terror Zone,Region 2,,Chapter,Annapolis,Maryland,United States,dgrant1518@yahoo.com,202  4809107,39.345095297496506,-76.46290297422446,2026-06-19
a0M6g00000BqRgo,U.S. Dream Academy NSBE Jr.,Primary Zone,Region 2,,Chapter,Baltimore,Maryland,United States,dbarnes@usdreamacademy.org,443  2034993,39.40160267817318,-76.4850016070624,2026-06-19
a0M6g00000BqRgp,Southern MD Future Engineers - A Links NSBE Jr. Chapter,Danger Zone,Region 2,,Chapter,Bryans Road,Maryland,United States,southernmdchain@linksinc.org,443  6949595,38.76422149835202,-77.05564552485053,2026-06-19
a0M6g00000BqRgq,Reid Temple Christian Academy,Danger Zone,Region 3,,Chapter,Glenn Dale,Maryland,United States,ddais@reidtempleacademy.com,301  8606570,38.92707256853323,-76.76507222215487,2026-06-19
a0M6g00000BqRgs,Dover Delaware Chapter- Links NSBE Jr.,Danger Zone,Region 2,,Chapter,Dover,Delaware,United States,linksachievers@comcast.net,302  6972887,39.03640752209383,-75.26508312953851,2026-06-19
a0M6g00000BqRgt,STEM Scholars- Pine Bluff,OK Zone,Region 5,,Chapter,Pine Bluff,Arkansas,United States,tikeldavis@yahoo.com,870  9397489,35.05143332535412,-92.34346791838847,2026-06-19
a0M6g00000BqRgu,Montana Tech,Northwest Zone,Region 6,,Chapter,Butte,Montana,United States,nsbemontanatech@gmail.com,334  5522577,46.68764292635711,-110.62707416791986,2026-06-19
a0M6g00000BqRgv,ACHS STEM Nation NSBE Jr.,Terror Zone,Region 2,,Chapter,Washington,District of Columbia,United States,mming@achsdc.org,301  7931245,38.65965641748758,-76.78046378954363,2026-06-19
a0M6g00000BqRgw,US Dream Academy - Houston NSBE Jr,Big Tex Zone,Region 5,,Chapter,Houston,Texas,United States,dbhakta@usdreamacademy.org,410  7727143,31.113446502042855,-97.39887040073626,2026-06-19
a0M6g00000BqRgy,PCSS 2 NSBE Jr.,New England Zone,Region 1,,Chapter,Saugus,Massachusetts,United States,pcss2.nsbe@gmail.com,781  6663907,42.087394004037016,-71.62022915403821,2026-06-19
a0M6g00000BqRgz,WJ Keenan Project REAL NSBE Jr.,Comfort Zone,Region 2,,Chapter,Columbia,South Carolina,United States,wjk.sci@gmail.com,803  7147559,33.79029047509857,-80.76299651977918,2026-06-19
a0M6g00000BqRh0,Central MS Professionals Chapter,Professional Zone,Region 3,,Chapter,Canton,Mississippi,United States,nsbecentralms@gmail.com,989  9281459,32.9322930913722,-89.88392653074018,2026-06-19
a0M6g00000BqRh1,Cedar Hill Collegiate NSBE Jr,Big Tex Zone,Region 5,,Chapter,Cedar Hill,Texas,United States,eric@primestarconstruction.com,972  2175583,31.36356419971667,-97.82900226378942,2026-06-19
a0M6g00000BqRh2,Toledo NSBE Professionals,Primary Zone,Region 4,,Chapter,Toledo,Ohio,United States,knelson06@aol.com,419  3675400,40.66606845769654,-83.04463804804513,2026-06-19
a0M6g00000BqRh3,Palatka NSBE JR,Primary Zone,Region 3,,Chapter,San Bernardino,California,United States,palatkapal@gmail.com,386  546001,35.951380867805916,-119.43902902475243,2026-06-19
a0M6g00000BqRh4,NOVA-Leesburg NSBE Jr.,Danger Zone,Region 2,,Chapter,Leesburg,Virginia,United States,sross@tykefoundation.org,703  7797467,37.54498145064226,-78.23047044808303,2026-06-19
a0M6g00000BqRh5,NSBE Salt Lake Professionals,Southwest Zone,Region 6,,Chapter,Salt Lake City,Utah,United States,simbarashe.maponga@gs.com,801  7416356,40.11493350996089,-112.04075271888375,2026-06-19
a0M6g00000BqRh6,(CAC) Kappa Alpha Psi Guide Right- Region 4 NSBE Jr.,PCI Zone,Region 4,,Chapter,Naperville,Illinois,United States,jdawan@wideopenwest.com,,40.49662864093519,-88.74020274541846,2026-06-19
a0M6g00000BqRh7,Connecticut Fairfield and New Haven Supporters (CT-FANS) Professionals,New England Zone,Region 1,,Chapter,Stratford,Connecticut,United States,nsbectfans@gmail.com,,41.8599845978989,-72.8678454979844,2026-06-19
a0M6g00000BqRh8,Vaughn College of Aeronautics and Technology,Metro/LI Zone,Region 1,,Chapter,Flushing,New York,United States,vcat.nsbe@vaughn.edu,(609 ) 251-9292,42.18732127600147,-75.12416651729406,2026-06-19
a0M6g00000BqRh9,Lockhart Elementary NSBE Jr.,Big Tex Zone,Region 5,,Chapter,Houston,Texas,United States,djacks14@houstonisd.org,713  9421950,30.875844551085102,-97.80058315600365,2026-06-19
a0M6g00000BqRhB,100 Boys of Code Inc. NSBE Jr.,Primary Zone,Region 3,,Chapter,McDonough,Georgia,United States,info@100boysofcode.org,678  6122789,33.34863230756526,-83.3714818199761,2026-06-19
a0M6g00000BqRhC,BCM Biotech Academy at Rusk NSBE Jr,Big Tex Zone,Region 5,,Chapter,Houston,Texas,United States,sbutler5@houstonisd.org,713  2264543,31.248638099329387,-97.5510979350986,2026-06-19
a0M6g00000BqRhD,Harbor Lites Chapter a LINKS-NSBE Jr. Chapter,PCI Zone,Region 4,,Chapter,Waukegan,Illinois,United States,jswopes@lyonsacademy.org,,40.34288254085831,-88.96531503367225,2026-06-19
a0M6g00000BqRhE,STRIVE Hillsborough,Primary Zone,Region 3,,Chapter,Tampa,Florida,United States,salisa@coiempowerment.com,863  6221011,27.791876609503962,-81.73258884071163,2026-06-19
a0M6g00000BqRhF,STEM Scholars- Washington D.C.,Terror Zone,Region 2,,Chapter,Washington,District of Columbia,United States,nsbestemscholars@gmail.com,571  2165772,38.63966638302445,-77.28885230299201,2026-06-19
a0M6g00000BqRhG,"STYDRS- Student Empowerment Stem Program- Links-NSBE, Jr.",Northern California Zone,Region 6,,Chapter,San Jose,California,United States,,,36.43277780109198,-119.69414246828956,2026-06-19
a0M6g00000BqRhH,Greater Phoenix Future Engineers - A Links NSBE Jr.,Southwest Zone,Region 6,,Chapter,Tempe,Arizona,United States,ayokrah@q.com,6023701557,34.04700286743363,-111.66671718560292,2026-06-19
a0M6g00000BqRhI,"Talented Rams @ Rawson STEAM -- a Links-NSBE, Jr. Chapter",New England Zone,Region 1,,Chapter,West Hartford,Connecticut,United States,sandra.inga@yahoo.com,860  8885303,41.635873586427955,-72.95996892265391,2026-06-19
a0M6g00000BqRhJ,Hope's S.T.E.M. Academy,Southern California Zone,Region 6,,Chapter,Compton,California,United States,pastoredrob@gmail.com,310  817,35.94343222428862,-120.01052579486716,2026-06-19
a0M6g00000BqRhK,Lee Magnet High School,Cajun Zone,Region 5,,Chapter,Baton Rouge,Louisiana,United States,lsunsbechair@gmail.com,225  7576183,30.90281331751815,-91.57601111465956,2026-06-19
a0M6g00000BqRhL,John McCandless STEM Charter School,Northern California Zone,Region 6,,Chapter,Stockton,California,United States,lgreen@lusd.net,,35.99127609403763,-119.60587355165978,2026-06-19
a0M6g00000BqRhN,BGC Mercer NSBE Jr.,New Jersey Zone,Region 1,,Chapter,Lawrence Township,New Jersey,United States,cfeliciano@bgcmercer.org,609  6956060,40.27441389239249,-74.5906951283283,2026-06-19
a0M6g00000BqRhO,STEM Academics NSBE Jr.,Terror Zone,Region 2,,Chapter,Springfield,Virginia,United States,zainababbasm@hotmail.com,,37.79165726394225,-78.38890073876925,2026-06-19
a0M6g00000BqRhP,Engineering-In-Action NSBE Jr.,Primary Zone,Region 3,,Chapter,Atlanta,Georgia,United States,bells1@fultonschools.org,404  4840234,33.382641728963705,-83.42025849190729,2026-06-19
a0M6g00000BqRhQ,U-Stem NSBE Jr.,Terror Zone,Region 2,,Chapter,Silver Spring,Maryland,United States,brian@stemshakers.org,,39.23307624291206,-76.82396949209023,2026-06-19
a0M6g00000BqRhR,Sacramento NSBE Jr.,Southern California Zone,Region 6,,Chapter,Sacramento,California,United States,contact.csusnsbe@gmail.com,,35.87321698548843,-119.3870978992085,2026-06-19
a0M6g00000BqRhS,The University of Sydney,International Zone,Region 6,,Chapter,,,Australia,donald.azuatalam@sydney.edu.au,(29) 351-2222,,,2026-06-19
a0M6g00000BqRhT,Penn State Greater Allegheny,End Zone,Region 2,,Chapter,University Park,Pennsylvania,United States,cem183@psu.edu,(814) 867-3019,40.47972294716721,-77.52468031721214,2026-06-19
a0M6g00000BqRhU,Cy-Fair NSBE Jr.,Big Tex Zone,Region 5,,Chapter,Cypress,Texas,United States,cyfairnsbejr@gmail.com,760  5801517,30.944169573767443,-97.35734107865288,2026-06-19
a0M6g00000BqRhV,PECS Knights NSBE JR.,PCI Zone,Region 4,,Chapter,Chicago,Illinois,United States,rhuej@pecs.k12.il.us,,40.435353121491744,-88.8105499906786,2026-06-19
a0M6g00000BqRhW,Lindblom NSBE Jr.,PCI Zone,Region 4,,Chapter,Chicago,Illinois,United States,lindblom.nsbejr@gmail.com,312 8822119,40.55500176870367,-89.18776877224361,2026-06-19
a0M6g00000BqRhX,STEM City Chicago NSBE Jr,PCI Zone,Region 4,,Chapter,Richton Park,Illinois,United States,bkey@rich227.org,773  9317212,40.646105321265225,-89.02954427795574,2026-06-19
a0M6g00000BqRhZ,Ruth Mayo,Comfort Zone,Region 2,,Chapter,Rockville,Maryland,United States,rmayo@nsbe.org,,39.16125555448492,-77.15048485918928,2026-06-19
a0M6g00000BqRha,NSBE Atlanta District Wide NSBE Jr.,Primary Zone,Region 3,,Chapter,Atlanta,Georgia,United States,pci@nsbeatlantaprofessionals.org,770  8617409,33.38597694888782,-83.79644652982509,2026-06-19
a0M6g00000BqRhb,HSHP (Beta-Max) NSBE Jr.,Comfort Zone,Region 2,,Chapter,Orangeburg,South Carolina,United States,derek.harrison@ocsd5.net,803  5351693,33.55033617457811,-80.97422357092445,2026-06-19
a0M6g00000BqRhc,Goodwin Elementary NSBE Jr,Comfort Zone,Region 2,,Chapter,North Charleston,South Carolina,United States,nsbejr.goodwin@gmail.com,(84376500) 000-0000,33.597213040027434,-81.1883783028897,2026-06-19
a0M6g00000BqRhd,Saint Martin's University,Primary Zone,Region 6,,Chapter,Lacey,Washington,United States,smunsbe@stmartin.edu,(206) 288-9526,47.493499969121146,-121.56544482590084,2026-06-19
a0M6g00000BqRhe,Golden Triangle Professionals,Professional Zone,Region 3,,Chapter,Mississippi State,Mississippi,United States,nsbe.gtp@gmail.com,904  8618485,33.0369427151085,-89.80528645377436,2026-06-19
a0M6g00000BqRhf,New Century Technology High School NSBE Jr,Primary Zone,Region 3,,Chapter,Huntsville,Alabama,United States,terry.thornthon@hsv-k12.org,256  4287800,32.96499708986873,-86.81836039889156,2026-06-19
a0M6g00000BqRhg,Fort Valley Links-NSBE Jr. Chapter,Primary Zone,Region 3,,Chapter,Fort Valley,Georgia,United States,collickd@hotmail.com,478  3356347,33.152584910790495,-83.5732872502988,2026-06-19
a0M6g00000BqRhh,Philadelphia High School for Girls NSBE Jr.,End Zone,Region 2,,Chapter,Philadelphia,Pennsylvania,United States,vlbaker216@gmail.com,215  5145454,40.5717007809313,-76.89471223376289,2026-06-19
a0M6g00000BqRhi,West Catholic Preparatory HS NSBE Jr.,Danger Zone,Region 2,,Chapter,Philadelphia,Pennsylvania,United States,rbaxter@westcatholic.org,215  3862244,40.480651549928474,-77.4356901491255,2026-06-19
a0M6g00000BqRhj,Long Island Links - NSBE Jr.,Metro/LI Zone,Region 1,,Chapter,Manhasset,New York,United States,petagayle.white@gmail.co,(917) 650-8539,42.29039184261588,-74.70584570708446,2026-06-19
a0M6g00000BqRhk,New Haven CT Links-NSBE Jr Chapter,New England Zone,Region 1,,Chapter,New Haven,Connecticut,United States,cjcaka@aol.com,203  9311354,41.27595961795795,-72.79062811810412,2026-06-19
a0M6g00000BqRhl,MISSISSIPPI ROSES (MS) LIFE STEAMers-LINKS-NSBE JR,Primary Zone,Region 3,,Chapter,Holly Springs,Mississippi,United States,lwsandra@olemiss.edu,662  6071464,33.01638738278113,-89.50396296675399,2026-06-19
a0M6g00000BqRhm,"Petersburg Chapter, Links Inc.",Danger Zone,Region 2,,Chapter,North Chesterfield,Virginia,United States,sclaiborne@vsu.edu,804  7218817,38.11360240154834,-78.14797833188193,2026-06-19
a0M6g00000BqRhn,Greater Queens LINKS - NSBE. Jr,Metro/LI Zone,Region 1,,Chapter,Cambria Heights,New York,United States,linksheila618@gmail.com,718  7553008,42.27772300316081,-75.08631480320345,2026-06-19
a0M6g00000BqRho,Cardozo Future Engineers - a LINKS-NSBE Jr. Chapter,Danger Zone,Region 2,,Chapter,Silver Spring,Maryland,United States,tiffany.hinton@gmail.com,277-0034,39.377220919766195,-76.89566615801041,2026-06-19
a0M6g00000BqRhp,White Oak Middle School (WOMS) NSBE Jr.,Terror Zone,Region 2,,Chapter,Silver Spring,Maryland,United States,womsnsbejr@gmail.com,301  8029930,39.23090349888064,-76.86990285711664,2026-06-19
a0M6g00000BqRhq,Piscataway High School (PHS) NSBE Jr.,,Region 1,,Chapter,Piscataway,New Jersey,United States,alevinson@pway.org,,40.3421772510441,-74.36716322548492,2026-06-19
a0M6g00000BqRhs,Future Eagle Engineers: Links-NSBE Jr.,Terror Zone,Region 2,,Chapter,Woodbridge,Virginia,United States,futureeagleengineers@gmail.com,703  6152032,37.77559090622595,-77.88500757116334,2026-06-19
a0M6g00000BqRht,Links-Pittsburgh Lincoln Engineering,Comfort Zone,Region 2,,Chapter,Pittsburgh,Pennsylvania,United States,jprjamy@gmail.com,313  600-2822,40.53426269154947,-77.10680474129967,2026-06-19
a0M6g00000BqRhu,Morris County Links FMS NSBE Jr.,New Jersey Zone,Region 1,,Chapter,Morristown,New Jersey,United States,dmboles@optonline.net,973  2771414,40.18855770331004,-74.58530133223829,2026-06-19
a0M6g00000BqRhv,ADJ Little Engineers - Buffalo(NY) LINKS- NSBE Jr.,Metro/LI Zone,Region 1,,Chapter,Buffalo,New York,United States,janicef3@aol.com,716  9823579,42.12376107576348,-75.2099860871814,2026-06-19
a0M6g00000BqRhx,"Greater Mobile (AL) Links, Inc - NSBE Jr",Primary Zone,Region 3,,Chapter,Mobile,Alabama,United States,ckrozier66@gmail.com,251  5332016,32.52087757534131,-86.67388705379726,2026-06-19
a0M6g00000BqRhy,STEAM Power PDX - A LINKS-NSBE Jr. Chapter,Northwest Zone,Region 6,,Chapter,Portland,Oregon,United States,info@portlandlinksinc.org,971  8329851,44.68088341684014,-121.95690120005293,2026-06-19
